"name","address","city","state","zip_code","latitude","longitude","rating","review_count","is_open","categories"
"St Honore Pastries","935 Race St","Philadelphia","PA","19107",39.9555052,-75.1555641,4,80,1,"Restaurants, Food, Bubble Tea, Coffee & Tea, Bakeries"
"Tuna Bar","205 Race St","Philadelphia","PA","19106",39.953949,-75.1432262,4,245,1,"Sushi Bars, Restaurants, Japanese"
"BAP","1224 South St","Philadelphia","PA","19147",39.943223,-75.162568,4.5,205,1,"Korean, Restaurants"
"Craft Hall","901 N Delaware Ave","Philadelphia","PA","19123",39.9625821,-75.1356571,3.5,65,1,"Eatertainment, Arts & Entertainment, Brewpubs, American (Traditional), Bakeries, Breweries, Food, Restaurants"
"ReAnimator Coffee","1523 E Susquehanna Ave","Philadelphia","PA","19125",39.9764555,-75.1270254,4,105,1,"Food, Coffee & Tea"
"Red Hook Coffee & Tea","765 S 4th St","Philadelphia","PA","19147",39.9385518,-75.1496356,4.5,183,1,"Restaurants, Breakfast & Brunch, Vegan, Bagels, Food, Coffee & Tea"
"Baltic Bakery","2609 Edgemont St","Philadelphia","PA","19125",39.9768798,-75.1161695,4.5,12,1,"Food, Bakeries, Restaurants"
"Brown Sugar Bakery & Cafe","219 S 52nd St","Philadelphia","PA","19139",39.9563959,-75.2253784,4.5,66,1,"Cupcakes, Caribbean, Restaurants, Trinidadian, Food, Bakeries, Cafes"
"Federal Donuts","2101 Pennsylvania Ave","Philadelphia","PA","19130",39.963042,-75.1741858944,4.5,11,1,"Sandwiches, Chicken Wings, Restaurants, Donuts, Food"
"The Love","130 S 18th St","Philadelphia","PA","19103",39.9506555,-75.1708991,4,618,1,"Restaurants, American (New), Breakfast & Brunch, Burgers"
"Jong Ka Jib","6600 N 5th St","Philadelphia","PA","19126",40.0520643,-75.1273939,4.5,351,1,"Korean, Restaurants"
"Marcie Blaine","108 S 13th St","Philadelphia","PA","19107",39.950036,-75.162158,3.5,8,1,"Desserts, Specialty Food, Food, Chocolatiers & Shops"
"The Twisted Tail","509 S 2nd St","Philadelphia","PA","19147",39.9418766,-75.1451988,4,604,1,"Event Planning & Services, Whiskey Bars, American (New), American (Traditional), Venues & Event Spaces, Bars, Nightlife, Restaurants"
"Chick-fil-A","9711 Roosevelt Blvd","Philadelphia","PA","19114",40.08178,-75.0267907,4,80,1,"Event Planning & Services, American (Traditional), Restaurants, Food, Caterers, Fast Food, Chicken Shop, Breakfast & Brunch"
"NY Bagel & Deli Shop","1120 Buttonwood St","Philadelphia","PA","19123",39.960811,-75.1573883,4,31,1,"Bagels, Food, Breakfast & Brunch, Coffee & Tea, Restaurants, Burgers, Delis"
"The Royal Indian Cuisine","272 S 20th St","Philadelphia","PA","19103",39.948365,-75.1744997,4,28,1,"Restaurants, Indian"
"Cedar Park Cafe","4914 Baltimore Ave","Philadelphia","PA","19143",39.94796,-75.22198,4,301,1,"Diners, Restaurants, Sandwiches, Breakfast & Brunch, Vegetarian"
"Edible Arrangements","6153 Ridge Ave, Unit A","Philadelphia","PA","19128",40.035169,-75.216409,3.5,10,1,"Flowers & Gifts, Specialty Food, Shopping, Food, Florists, Gift Shops, Chocolatiers & Shops"
"The Coventry Deli","2000 Market St","Philadelphia","PA","19103",39.953291,-75.173645,4,65,1,"Restaurants, Delis, Salad, Sandwiches"
"Sean Thorntons Public House","2401 E Allegheny Ave","Philadelphia","PA","19134",39.988107,-75.105553,3.5,6,1,"Food, Nightlife, Restaurants, Irish Pub, Bars, Irish, Pubs, Beer, Wine & Spirits, Event Planning & Services, Gastropubs, Caterers"
"Flambo Caribbean Restaurant","820 N Broad St","Philadelphia","PA","19130",39.9686973,-75.1606146,4.5,138,1,"Trinidadian, Caribbean, Restaurants, Seafood"
"Wawa","3744 Spruce St","Philadelphia","PA","19104",39.9510885597,-75.1989988336,3.5,50,1,"Delis, Gas Stations, Food, Convenience Stores, Restaurants, Automotive, Coffee & Tea, Sandwiches"
"The Lunar Inn","3124 Richmond St","Philadelphia","PA","19134",39.9822933,-75.1031599,4.5,29,1,"Bars, Food, Restaurants, Beer, Wine & Spirits, American (Traditional), Nightlife"
"Chase's Hop Shop","7235 Rising Sun Ave","Philadelphia","PA","19111",40.0603863,-75.0845897,4.5,116,1,"Chicken Wings, Nightlife, Bars, Delis, Food, Beer Gardens, Sandwiches, Beer Bar, Restaurants, Beer, Wine & Spirits, Gastropubs"
"Beck's Cajun Cafe","51 N 12th St","Philadelphia","PA","19107",39.9533224742,-75.1590000821,4,485,1,"Restaurants, Cajun/Creole"
"Golden Triangle","610 S 5th St","Philadelphia","PA","19147",39.9415201345,-75.1509702725,4.5,159,1,"Restaurants, Malaysian, Burmese, Asian Fusion, Thai"
"Forin Cafe","2041 Coral St, Ste 2","Philadelphia","PA","19125",39.9813471541,-75.1322471288,4.5,10,1,"Shopping, Restaurants, Cafes, Fashion"
"Mood Cafe","4618 Baltimore Ave","Philadelphia","PA","19143",39.9486639126,-75.2158315415,4.5,458,1,"Cafes, Pakistani, Juice Bars & Smoothies, Restaurants, Ice Cream & Frozen Yogurt, Halal, Indian, Coffee & Tea, Food"
"Wilson's Market","1337 W Olney Ave","Philadelphia","PA","19141",40.0390528,-75.1438169,3.5,13,1,"Specialty Food, Meat Shops, Sandwiches, Food, Restaurants, Delis, Grocery"
"Southgate","1801 Lombard St","Philadelphia","PA","19146",39.9455687,-75.1717901,4,323,1,"Breakfast & Brunch, American (Traditional), Korean, Restaurants, Gastropubs, Nightlife, Bars, Cocktail Bars"
"Falls Deli","3492 Tilden St","Philadelphia","PA","19129",40.0128847,-75.1901845,4.5,31,1,"Bagels, Food, Sandwiches, Delis, Breakfast & Brunch, Restaurants, Event Planning & Services, Caterers"
"Angelina's","743 S 8th St","Philadelphia","PA","19147",39.940221217,-75.1557966694,4.5,49,1,"Restaurants, Italian"
"Crown Fried Chicken","933 N Broad St","Philadelphia","PA","19123",39.971145,-75.15902,3.5,11,1,"Chicken Wings, Restaurants, Fast Food"
"Gigi and Big R","38th and Spruce","Philadelphia","PA","19104",39.9512903,-75.1992768,4,81,1,"Restaurants, Food, Caribbean, Food Trucks"
"O Sole Mio","250 Catharine St","Philadelphia","PA","19147",39.9378287,-75.1482632,4.5,85,1,"Food, Seafood, Sardinian, Gelato, Restaurants, Pizza, Italian"
"Taqueria La Hacienda","4715 N Front St","Philadelphia","PA","19120",40.02202,-75.1240606,3.5,10,1,"Latin American, Restaurants"
"Alchemy Coffee","119 S 21st St","Philadelphia","PA","19103",39.9511237,-75.1755163,5,19,1,"Food, Coffee & Tea"
"Cannuli's Quality Meats & Poultry","937 S 9th St","Philadelphia","PA","19147",39.9378963,-75.1579013,4.5,38,1,"Specialty Food, Caterers, Meat Shops, Food, Event Planning & Services"
"Saladworks","2955 Market St, Ste 221","Philadelphia","PA","19104",39.9557501,-75.1819889,3.5,8,1,"Salad, Restaurants, American (Traditional), Food, Sandwiches, Do-It-Yourself Food, Soup, Vegetarian, American (New)"
"Olly","700 S 5th St","Philadelphia","PA","19147",39.9408776,-75.1511064,4,51,1,"Pizza, Food, Bagels, Sandwiches, Comfort Food, Breakfast & Brunch, Burgers, American (New), Nightlife, Bars, Wine Bars, Restaurants"
"Spice Grill","3447-61 Richmond St","Philadelphia","PA","19134",39.9862724,-75.094699,3.5,12,1,"Restaurants, Chinese, Asian Fusion"
"Han Dynasty","3711 Market St","Philadelphia","PA","19104",39.9567105161,-75.1971027811,4,783,1,"Restaurants, Chinese, Szechuan"
"Guavaberry Foods & Drinks ","776 S 4th St","Philadelphia","PA","19147",39.938371,-75.1501031,4,13,1,"Delis, Convenience Stores, Restaurants, Cafes, Food"
"México Lindo","700 Moore St","Philadelphia","PA","19148",39.926402,-75.1575374,4.5,73,1,"Mexican, Restaurants"
"Dragon House","1228 Chestnut St","Philadelphia","PA","19107",39.9503586,-75.1615836,4,5,1,"Restaurants, Chinese"
"Buca D’Oro ","711 Locust St","Philadelphia","PA","19106",39.9470772078,-75.1541655511,4,5,1,"Italian, Restaurants"
"Pho Nam Giang","427 Franklin Mills Cir","Philadelphia","PA","19154",40.0860776,-74.9648083509,4.5,23,1,"Chinese, Restaurants, Vietnamese, Asian Fusion"
"J'aime French Bakery","212 S 12th St","Philadelphia","PA","19107",39.948081,-75.1608093,4.5,310,1,"Food, Juice Bars & Smoothies, Coffee & Tea, Restaurants, Bakeries, Cafes"
"Pub & Kitchen","1946 Lombard St","Philadelphia","PA","19146",39.9456566,-75.1747733,3.5,615,1,"Restaurants, Pubs, Food, Bars, American (New), Nightlife"
"Square 1682","121 S 17th St","Philadelphia","PA","19103",39.9508011,-75.1686108,3.5,385,1,"American (New), Breakfast & Brunch, Bars, Nightlife, Restaurants"
"Franzone's Pizzeria & Restaurant","114 Levering St","Philadelphia","PA","19127",40.026465,-75.2244958,3.5,110,1,"Pizza, Restaurants"
"Vientiane Café","4728 Baltimore Ave","Philadelphia","PA","19143",39.9483087,-75.2178905,4,304,1,"Vietnamese, Restaurants, Food, Thai, Coffee & Tea, Laotian"
"Menchie's Frozen Yogurt","9173 Roosevelt Blvd","Philadelphia","PA","19114",40.076192,-75.031427,4,19,1,"Food, Desserts, Do-It-Yourself Food, Ice Cream & Frozen Yogurt"
"1 Tippling Place","2006 Chestnut St","Philadelphia","PA","19103",39.951859,-75.173882,4,300,1,"Bars, Nightlife, Lounges, Cocktail Bars"
"Passero's Coffee Roasters","1601 John F Kennedy Blvd","Philadelphia","PA","19103",39.9542012,-75.1674658,4.5,91,1,"Coffee & Tea, Restaurants, Food, Coffee Roasteries, Sandwiches"
"Gachi Sushi and Noodle","8500 Essington Ave, A West Terminal","Philadelphia","PA","19153",39.8946117,-75.2292952,4,95,1,"Noodles, Japanese, Restaurants, Sushi Bars"
"George's Wings","3818 Morrell Ave","Philadelphia","PA","19114",40.0643044322,-74.9868814021,3.5,50,1,"American (Traditional), Fast Food, Restaurants, Chicken Wings, Food, Seafood, Sandwiches, Wraps, Burgers"
"Vineyards Cafe","847 N 16th St","Philadelphia","PA","19130",39.969939,-75.163026,4.5,192,1,"Coffee & Tea, Cafes, Food, Creperies, Internet Cafes, Restaurants, Breakfast & Brunch"
"PrimoHoagies","1528 W Ritner St","Philadelphia","PA","19145",39.9209271,-75.1733058,4,43,1,"Delis, Restaurants, Italian, Local Flavor, Sandwiches"
"Hyon's Seafood","1320 S 21st St","Philadelphia","PA","19146",39.9350405,-75.179381,3.5,5,1,"Restaurants, Seafood"
"Ron's Caribbean Cuisine","5726 N Broad St","Philadelphia","PA","19141",40.0407573,-75.1448014,4,142,1,"Restaurants, Food, Ethnic Food, Cafes, Caribbean, Specialty Food"
"Tom's Corner Grill & Pizza","7375 Crabtree St","Philadelphia","PA","19136",40.0406177,-75.0438084,3.5,11,1,"Restaurants, Pizza"
"Los Compadres","3300 Market St","Philadelphia","PA","19145",39.9553865,-75.1910637,4,12,1,"Mexican, Italian, Food Trucks, Restaurants, Food"
"Los Potrillos","4200 G St.","Philadelphia","PA","19124",40.0123759,-75.1124633,4,17,1,"American (Traditional), Spanish, Restaurants, Food Trucks, Mexican, Food"
"Kurry Shack","2015 E Moyamensing Ave","Philadelphia","PA","19148",39.9229257,-75.1525267,3.5,29,1,"Vegetarian, Specialty Food, Health Markets, Halal, Indian, Restaurants, Food"
"The Black Sheep Pub & Restaurant","247 S 17th St","Philadelphia","PA","19103",39.9484223,-75.1692901,3.5,339,1,"Bars, Pubs, Irish Pub, Nightlife, Sports Bars, Restaurants, American (New)"
"Slices Pizza","4249 Ridge Ave","Philadelphia","PA","19129",40.0096537,-75.1954732,4,122,1,"Pizza, Food, Restaurants"
"Lazos Pizza & Grill","2533 Poplar St","Philadelphia","PA","19130",39.9727751034,-75.1789870874,4,176,1,"Pizza, American (Traditional), Restaurants, Italian"
"Ramble Pizza","","Philadelphia","PA","19125",39.9793657,-75.1253492,4.5,19,1,"Restaurants, Pizza, Food, Food Trucks"
"Sue's Market","275 St James Pl","Philadelphia","PA","19106",39.946233,-75.1455404,4,9,1,"Beer, Wine & Spirits, Restaurants, Specialty Food, Food, Sandwiches, Delis, Fruits & Veggies, Grocery"
"Charlie's Roast Pork","1301 S 3rd St","Philadelphia","PA","19147",39.9315335419,-75.1496175304,4.5,30,1,"Restaurants, Breakfast & Brunch, Sandwiches"
"New Liberty Distillery","1431 N Cadwallader St","Philadelphia","PA","19122",39.9737458,-75.1405645,4.5,48,1,"Food, Beer, Wine & Spirits, Distilleries, Venues & Event Spaces, Event Planning & Services, Bars, Nightlife"
"Tomo Sushi & Ramen","228 Arch St","Philadelphia","PA","19106",39.951923,-75.144335,4.5,193,1,"Japanese, Restaurants, Ramen, Sushi Bars"
"City Food Tours","","Philadelphia","PA","19102",39.9556241,-75.1647529,4.5,48,1,"Hotels & Travel, Specialty Food, Food, Food Tours, Tours"
"Loco Lucho's Latino Kitchen","51 N 12th St","Philadelphia","PA","19107",39.9531593,-75.1590984,3.5,40,1,"Spanish, Restaurants, Latin American, Puerto Rican, Caribbean, Cuban"
"Potito's Italian American Pastries","1614 W Ritner St","Philadelphia","PA","19145",39.9210221,-75.1744313,3.5,88,1,"Food, Restaurants, Bakeries"
"Gaetano’s","3820 Lancaster Ave","Philadelphia","PA","19104",39.9604844097,-75.1977337,3.5,6,1,"Pizza, Restaurants, Sandwiches, Cheesesteaks"
"Las Cazuelas Restaurant BYOB","426 W Girard Ave","Philadelphia","PA","19123",39.9698623,-75.1439919,4,338,1,"Food, Tacos, Mexican, Latin American, Restaurants, Spanish"
"D'S Caribbean And American Food","3009 N 22nd St","Philadelphia","PA","19132",40.000452,-75.1662905577,3.5,10,1,"Caribbean, Cajun/Creole, Restaurants, Southern"
"Tony Express","3334 N Broad St","Philadelphia","PA","19140",40.004478,-75.152804,5,8,1,"Food, Food Trucks, Mediterranean, Sandwiches, Restaurants, Burgers, Falafel"
"Panasian Buffet","833 Adams Ave","Philadelphia","PA","19124",40.0308845266,-75.1041150063,3.5,62,1,"Pan Asian, Japanese, Buffets, Restaurants, American (Traditional), Chinese, Seafood"
"Lucky Goat Coffeehouse","888 N 26th St","Philadelphia","PA","19130",39.9725217939,-75.1792898199,4.5,135,1,"Food, Coffee & Tea"
"4 Seasons Grill Mexican Restaurant","3503 B St, Ste 4B","Philadelphia","PA","19134",40.0030161,-75.1239721,4,12,1,"Mexican, Restaurants"
"Paris Baguette","6773 N 5th St","Philadelphia","PA","19126",40.0546357,-75.1261125,4,32,1,"Bakeries, Food"
"Queen Sheba","4511 Baltimore Ave","Philadelphia","PA","19143",39.9489954358,-75.2135489881,4,64,1,"Nightlife, Restaurants, Sports Bars, Bars, Ethiopian"
"Ricci's Hoagies","1165 S 11th St","Philadelphia","PA","19147",39.9353601,-75.1615836,4,67,1,"Restaurants, Italian, Sandwiches"
"Pina's Pizza","8919 Ridge Ave","Philadelphia","PA","19128",40.0694581,-75.2398454,3.5,47,1,"Restaurants, Italian, Pizza, Seafood"
"Oregon Steaks","2654 S 10th St","Philadelphia","PA","19148",39.91579,-75.1653879,3.5,184,1,"Restaurants, Cheesesteaks, Sandwiches, Steakhouses, Local Flavor"
"Daydreams Gentlemen's Club","5200 Unruh Ave","Philadelphia","PA","19135",40.0183873,-75.0424964,3.5,19,1,"Bars, Adult Entertainment, Event Planning & Services, Nightlife, Arts & Entertainment, Sports Bars, Strip Clubs, Party & Event Planning, Dance Clubs"
"SET NoLibs","1030 N 2nd St, Unit 101","Philadelphia","PA","19123",39.9671493,-75.1404232,4,108,1,"Mexican, Bars, Restaurants, Asian Fusion, Lounges, Nightlife, Salad, Tacos"
"George's Sandwich Shop","900 S 9th St","Philadelphia","PA","19147",39.9388315986,-75.1579846257,4,93,1,"Italian, Cheesesteaks, Restaurants, Sandwiches"
"Good Karma Cafe","928 Pine St","Philadelphia","PA","19107",39.9446092,-75.1578331,4,249,1,"Food, Cafes, Coffee & Tea, Restaurants"
"Athenian Restaurant","6824 Torresdale Ave","Philadelphia","PA","19135",40.0259565956,-75.0442917475,4,27,1,"Food, American (New), Diners, Restaurants, American (Traditional)"
"The Palace of Indian","1533 S 11th St","Philadelphia","PA","19147",39.9299499,-75.1629175,4,88,1,"Restaurants, Indian"
"Mac's Tavern","226 Market St","Philadelphia","PA","19106",39.949794,-75.144739,3.5,446,1,"Nightlife, Restaurants, American (New), Bars, Pubs"
"Moon Flower House","6414 Frankford Ave, Unit 11","Philadelphia","PA","19135",40.0295791831,-75.0583349168,4.5,8,1,"Juice Bars & Smoothies, Food, Burgers, Restaurants, Sandwiches"
"Holmesburg Bakery","7935 Frankford Ave","Philadelphia","PA","19136",40.0410115,-75.0284172,4,79,1,"Restaurants, Food, Bakeries"
"Chez Yasmine","3740 Spruce St","Philadelphia","PA","19104",39.9510399,-75.1989093,4,37,1,"Food, Street Vendors, Food Trucks, Specialty Food"
"Halal Gyro King","1 S 12th St","Philadelphia","PA","19107",39.95187,-75.159913,4.5,24,1,"Food Trucks, Halal, Food, Street Vendors, Sandwiches, Middle Eastern, Food Stands, Restaurants"
"Cake Life Bake Shop","1306 Frankford Ave","Philadelphia","PA","19125",39.970468014,-75.1345396622,4.5,241,1,"Caterers, Cafes, Event Planning & Services, Food, Cupcakes, Bakeries, Restaurants, Desserts"
"Maria's Ristorante on Summit","8100 Ridge Ave","Philadelphia","PA","19128",40.0567171,-75.2363521,3.5,98,1,"Italian, Pizza, Restaurants"
"Rangoli: Vibrant Flavors of India","10863 Bustleton Ave","Philadelphia","PA","19116",40.110566,-75.0238988,4,89,1,"Pakistani, Specialty Food, Halal, Restaurants, Indian, Health Markets, Vegetarian, Vegan, Ethnic Food, Food"
"Foodery","324 S 10th St","Philadelphia","PA","19102",39.9448121788,-75.158305077,3.5,113,1,"Food, Delis, Beer, Wine & Spirits, Restaurants"
"Dagwood's Pub","4625 Linden Ave","Philadelphia","PA","19114",40.0506387,-74.9997615712,4,123,1,"Restaurants, Pubs, Nightlife, Bars, Seafood"
"Jimmies Cupcake","","Philadelphia","PA","19004",40.0131418,-75.2304038,3.5,17,1,"Food Trucks, Food, Cupcakes, Street Vendors"
"Alena’s Cafe","6669 Germantown Ave","Philadelphia","PA","19119",40.0513741,-75.1849412,5,29,1,"Cafes, Restaurants"
"Zorba's Taverna","2230 Fairmount Ave","Philadelphia","PA","19130",39.9671642,-75.1748969,4.5,510,1,"Restaurants, Greek, Mediterranean"
"Heng Fa Food Market","130 N 10th St","Philadelphia","PA","19107",39.954417,-75.156357,4,28,1,"Ethnic Food, Food, Specialty Food, International Grocery, Grocery, Imported Food"
"Woolly Mammoth","430 South St","Philadelphia","PA","19147",39.9416322,-75.1503319,3.5,81,1,"Karaoke, Nightlife, Bars, Sports Bars, Music Venues, Arts & Entertainment"
"Jasmine Rice - Rittenhouse","306 S 16th St","Philadelphia","PA","19102",39.9470839462,-75.1682054067,3.5,307,1,"Soup, Thai, Restaurants, Salad"
"Xochitl","408 S 2nd St","Philadelphia","PA","19147",39.9428742,-75.1456449,3.5,453,1,"Lounges, Restaurants, Asian Fusion, Mexican, Latin American, Nightlife, Bars"
"Al Sham Restaurant - Philadelphia","306 W Chelten Ave","Philadelphia","PA","19144",40.0300231,-75.1803247,3.5,37,1,"Restaurants, Halal, Kebab, Middle Eastern"
"Mom Mom's Kitchen and Polish Food Cart","1505 South St","Philadelphia","PA","19146",39.9439859,-75.167449,5,91,1,"Food, Polish, Food Trucks, Street Vendors, Restaurants"
"Hibachi 2 Go","1414 Synder Ave","Philadelphia","PA","19145",39.9242167,-75.1703845,3.5,105,1,"Sushi Bars, Japanese, Restaurants"
"Gaby’s Station Pizza","1629 S 7th St","Philadelphia","PA","19148",39.9282246,-75.1568413,4,11,1,"Mexican, Restaurants, Pizza"
"Lauren Buckley, L.AC","1532 E Passyunk Ave","Philadelphia","PA","19147",39.9302939,-75.1631455,5,17,1,"Traditional Chinese Medicine, Health & Medical, Acupuncture, Massage Therapy"
"Day Break Eggs","2900 Grays Ferry Ave","Philadelphia","PA","19146",39.9387267,-75.1923844,4.5,22,1,"Restaurants, Breakfast & Brunch"
"Stuff'd Buns","","Philadelphia","PA","19143",39.9412882,-75.2187346,5,13,1,"Food, Event Planning & Services, Caterers, Food Trucks"
"The Frosted Fox Cake Shop","6511 Germantown Ave","Philadelphia","PA","19119",40.0487762,-75.1834594,5,104,1,"Bakeries, Food"
"Bitar's","947 Federal St","Philadelphia","PA","19147",39.9346516,-75.1602726,4,154,1,"Restaurants, Middle Eastern, Falafel, Bakeries, Food, Greek, Mediterranean"
"Cily Chicken Rice","933 Race St","Philadelphia","PA","19107",39.955545,-75.1554729,4.5,68,1,"Hainan, Fast Food, Chinese, Coffee & Tea, Food, Restaurants, Thai"
"Franklin's","3521 Bowman St","Philadelphia","PA","19129",40.0110062,-75.189062,3.5,129,1,"Restaurants, Burgers, Nightlife, Beer, Wine & Spirits, American (New), Bars, Food, Karaoke, Sports Bars"
"Tacodelphia","427 S Broad St","Philadelphia","PA","19147",39.9448608451,-75.1652079004,4,240,1,"New Mexican Cuisine, Mexican, Tex-Mex, Tacos, Restaurants"
"El Limon","4514 City Ave","Philadelphia","PA","19131",40.0027825,-75.2222705,4,12,1,"Mexican, Restaurants"
"Franny Lou's Porch","2400 Coral St","Philadelphia","PA","19125",39.9835674,-75.1293858,4.5,68,1,"Coffee & Tea, Breakfast & Brunch, Books, Mags, Music & Video, Bookstores, Tea Rooms, Bagels, Shopping, Sandwiches, Restaurants, Food"
"Keshet Kitchen","705 E Passyunk Ave","Philadelphia","PA","19147",39.9404826,-75.1507871,4.5,11,1,"Restaurants, Desserts, Comfort Food, Food, Middle Eastern"
"KASUMI SUSHI","2201 Penrose Ave, Ste3","Philadelphia","PA","19145",39.9102554,-75.1869588,4,55,1,"Restaurants, Japanese, Sushi Bars"
"Zaika","2481 Grant Ave","Philadelphia","PA","19114",40.0798480557,-75.025079772,4,181,1,"Halal, Pakistani, Restaurants, Indian"
"HipCityVeg - University City","214 S 40th St","Philadelphia","PA","19104",39.953549,-75.202991,4,314,1,"Sandwiches, Food, Burgers, Restaurants, Vegan, Desserts"
"Philadelphia Cricket Club","415 W Willow Grove Ave","Philadelphia","PA","19118",40.0650212,-75.2065334,4,13,1,"Venues & Event Spaces, Restaurants, Active Life, Event Planning & Services, Sports Clubs, Beaches, Tennis, Swimming Pools, Golf"
"Goldie","3401 Walnut St","Philadelphia","PA","19104",39.953074,-75.192585,4.5,46,1,"Mediterranean, Falafel, Restaurants, Fast Food"
"Buena Onda","1901 Callowhill St","Philadelphia","PA","19130",39.9609147337,-75.1708267829,4,552,1,"Tacos, Restaurants, Mexican"
"Vientiane Bistro","2537 Kensington Ave","Philadelphia","PA","19125",39.9881000819,-75.1282148436,4.5,67,1,"Vegan, Restaurants, Laotian, Asian Fusion, Thai, Cafes"
"Izzy's 33","1703 S 9th St","Philadelphia","PA","19148",39.9280043249,-75.160044618,4.5,24,1,"Mexican, Restaurants, Cafes, Breakfast & Brunch, Italian"
"John's Water Ice","701 Christian St","Philadelphia","PA","19147",39.9382846,-75.1548943,4.5,274,1,"Local Flavor, Ice Cream & Frozen Yogurt, Food"
"Joe's Steaks + Soda Shop","6030 Torresdale Ave","Philadelphia","PA","19135",40.0185131,-75.0581372,4.5,380,1,"Sandwiches, Restaurants, Cheesesteaks"
"Brownies Pub","46 S 2nd St","Philadelphia","PA","19106",39.9488403,-75.1441287,3.5,51,1,"Pubs, Nightlife, Bars, Sports Bars"
"Yellow Bicycle Canteen","930 Locust St","Philadelphia","PA","19107",39.9472244065,-75.1572515,5,13,1,"Caterers, Event Planning & Services, Cafes, Vegetarian, Restaurants, Sandwiches"
"Suraya","1528 Frankford Ave","Philadelphia","PA","19125",39.9736865005,-75.1339557767,4.5,1121,1,"Active Life, Beer Gardens, Grocery, Middle Eastern, Specialty Food, American (New), Parks, Cafes, Food, Nightlife, Restaurants, Coffee & Tea, Lebanese"
"Lloyd Whiskey Bar","529 E Girard Ave","Philadelphia","PA","19125",39.9713575331,-75.127588677,4,210,1,"Nightlife, Restaurants, Wine Bars, Cocktail Bars, Gastropubs, Bars, American (New), Lounges"
"Smiley's Cafe","4251 Main St","Philadelphia","PA","19127",40.024774,-75.2214354,4.5,423,1,"Juice Bars & Smoothies, Food, Mediterranean, Greek, Restaurants, Sandwiches"
"iPho Vietnamese Restaurant","1921 Fairmount Ave","Philadelphia","PA","19130",39.9674553,-75.169558,3.5,151,1,"Vietnamese, Restaurants"
"Happy Joy Family Restaurant","1328 W Girard Ave","Philadelphia","PA","19123",39.9710521,-75.1582199,4.5,21,1,"Breakfast & Brunch, American (Traditional), Restaurants"
"ShenNong Acupuncture and Oriental Medicine","926 Arch St","Philadelphia","PA","19107",39.9532187,-75.1557922,4,29,1,"Traditional Chinese Medicine, Acupuncture, Health & Medical"
"The Sweet Life Bakeshop","740 South St","Philadelphia","PA","19147",39.942203,-75.155223,5,316,1,"Food, Cupcakes, Desserts, Bakeries"
"The Original Hot Dog Factory","125 N 15th St","Philadelphia","PA","19102",39.9554278,-75.1643767,3.5,30,1,"Hot Dogs, Restaurants"
"Mediterra Grill","2119 N 63rd St","Philadelphia","PA","19151",39.9887627,-75.249793,3.5,36,1,"Restaurants, American (New), Salad, Sandwiches, Mediterranean"
"So Korean Grill","6201 N Front St, Ste 120","Philadelphia","PA","19120",40.0453172867,-75.1176526374,4.5,77,1,"Korean, Barbeque, Restaurants"
"Paris Baguette","3816 Chestnut St, Unit  9","Philadelphia","PA","19104",39.9551256,-75.1998158,4.5,15,1,"Food, Patisserie/Cake Shop, Bakeries, Coffee & Tea"
"Prohibition Taproom","501 N 13th St","Philadelphia","PA","19123",39.9613018,-75.1593118,4,618,1,"American (Traditional), Bars, Nightlife, Restaurants, Beer Bar, Gastropubs, Breakfast & Brunch, Tapas/Small Plates"
"P & S Ravioli","1640 S 10th St","Philadelphia","PA","19148",39.928473,-75.1619827,4.5,6,1,"Food, Do-It-Yourself Food, Restaurants, Italian"
"Cafe Square One","50 S 3rd St","Philadelphia","PA","19106",39.9489068,-75.1460802,4.5,245,1,"Food, Coffee & Tea, Cafes, Salad, Sandwiches, Sushi Bars, Restaurants, Breakfast & Brunch"
"Brick House Bar & Grille","3334 Grant Ave","Philadelphia","PA","19114",40.068094,-75.00631,3.5,46,1,"Sports Bars, Nightlife, Karaoke, Pubs, Bars"
"Bai Wei","1038 Race St","Philadelphia","PA","19107",39.9554771,-75.1572987,4,231,1,"Chinese, Food, Bubble Tea, Restaurants, Dim Sum, Szechuan"
"Earl of Sandwich","8500 Essington Ave, Terminal D, Philadelphia International Airport","Philadelphia","PA","19153",39.8768139466,-75.2398777179,3.5,81,1,"Restaurants, Sandwiches, Wraps, Salad"
"Termini Bros Bakery","12th St & Filbert St","Philadelphia","PA","19107",39.9530477103,-75.1590135265,4,263,1,"Food, Restaurants, Bakeries"
"Capriotti Bros","7132 Frankford Ave","Philadelphia","PA","19135",40.0354067,-75.0439681,5,12,1,"Fruits & Veggies, Food, Specialty Food"
"Jeisy Grilled Chicken","5701 Germantown Ave","Philadelphia","PA","19144",40.036142,-75.174734,4,10,1,"Barbeque, Restaurants, American (Traditional)"
"Green Basil Thai Kitchen","240 South St","Philadelphia","PA","19147",39.9413000709,-75.1472321594,4,74,1,"Thai, Restaurants"
"Barber's Hall","1402 W Oxford St","Philadelphia","PA","19121",39.9771894,-75.1588931,3.5,10,1,"Sports Bars, Venues & Event Spaces, Event Planning & Services, Nightlife, Bars"
"Asadero los tios","3087 Holme Ave","Philadelphia","PA","19136",40.0568875,-75.0154664,4.5,15,1,"Dominican, Caribbean, Mexican, Restaurants"
"Fresh Gulf Seafood","2528 S 24th St","Philadelphia","PA","19145",39.920544,-75.188066,4,32,1,"Seafood, Restaurants, Distilleries, Farmers Market, Food"
"7-Eleven","1912 Liacouras Walk","Philadelphia","PA","19122",39.9820199478,-75.1560544968,4,5,1,"Coffee & Tea, Food, Convenience Stores"
"Zio Pizza Palace & Grill","157 N 9th St","Philadelphia","PA","19107",39.955065,-75.1541846,4,43,1,"Fast Food, Italian, Vegetarian, Burgers, Vegan, Restaurants, Pizza, Chicken Wings"
"Authentic LanZhou Handpulled Noodles","935 Arch St","Philadelphia","PA","19107",39.9536866,-75.1561742,3.5,32,1,"Noodles, Restaurants"
"Ralphs Italian Restaurant","760 S 9th St","Philadelphia","PA","19147",39.9400584,-75.1578655,3.5,653,1,"Restaurants, Italian"
"Cucina Zapata","S 31st & Ludlow St","Philadelphia","PA","19104",39.9542886,-75.1855377,4.5,248,1,"Thai, Food Stands, Restaurants, Mexican"
"Valerio Coffee Roasters","4373 Main St","Philadelphia","PA","19127",40.0252890632,-75.2227872271,4,34,1,"Coffee & Tea, Bagels, Food, Breakfast & Brunch, Restaurants"
"In the Valley","1615 E Passyunk Ave","Philadelphia","PA","19148",39.929453,-75.1636243,4,73,1,"Nightlife, Restaurants, Wine Bars, Bars, Tapas/Small Plates, Cocktail Bars, American (New)"
"El Guero  Mexican Food Truck","1256 W Montgomery Ave","Philadelphia","PA","19122",39.9797909,-75.1546781,5,7,1,"Restaurants, Mexican"
"Shing Kee","600 Washington Ave, Ste 18 A","Philadelphia","PA","19147",39.9346322655,-75.1551747608,4,84,1,"Noodles, Chinese, Restaurants, Soup"
"DK Sushi","3401 Walnut St","Philadelphia","PA","19104",39.9531984523,-75.1928739332,3.5,30,1,"Sushi Bars, Japanese, Restaurants"
"The Post","129 S 30th St","Philadelphia","PA","19104",39.9524469799,-75.1836892962,4,46,1,"Bars, Nightlife, Arts & Entertainment, Restaurants, Arcades, Beer Bar, Cocktail Bars, Burgers, Chicken Wings"
"Fortune Chinese Restaurant","1828 S St","Philadelphia","PA","19146",39.9444060526,-75.1728806172,3.5,87,1,"Chinese, Restaurants"
"Uptown Grill Breakfast","38 S 60th St","Philadelphia","PA","19139",39.9609427,-75.2412374,4,10,1,"Restaurants, American (New)"
"Cold Stone Creamery","2530 Aramingo Ave","Philadelphia","PA","19125",39.9781891509,-75.1193685896,3.5,24,1,"Ice Cream & Frozen Yogurt, Food, Custom Cakes, Cupcakes"
"Cappuccio's Meats","1019 S 9th St","Philadelphia","PA","19147",39.9370969,-75.1580723,4,45,1,"Food, Meat Shops, Specialty Food"
"Non Stop Pizza & Grille","6601 Hegerman St","Philadelphia","PA","19135",40.022248,-75.0472798,3.5,13,1,"Restaurants, Pizza"
"Frank's Spaghetti House","7602 Castor Ave","Philadelphia","PA","19152",40.056184,-75.061858,3.5,43,1,"Italian, Restaurants, Bars, Wine Bars, American (New), Nightlife"
"The Jiu Jitsu Company","31 S 2nd St, Fl 2","Philadelphia","PA","19106",39.949049,-75.143627,5,6,1,"Brazilian Jiu-jitsu, Active Life, Kids Activities, Sports Clubs, Martial Arts, Fitness & Instruction"
"Solly Pizza","8108 Bustleton Ave","Philadelphia","PA","19152",40.0618594,-75.0520111,4,40,1,"Restaurants, Pizza"
"The Centurion Lounge","Terminal A West, near Gate A14","Philadelphia","PA","19153",39.8752249002,-75.2477547773,3.5,88,1,"Airport Lounges, Bars, Nightlife"
"Fabio's Chicken Restaurant Takeout","4805 N Front St","Philadelphia","PA","19120",40.0232879,-75.1237642,4.5,14,1,"Latin American, Restaurants, Chicken Wings"
"Parada Maimon","345 N 12th St","Philadelphia","PA","19107",39.9590025431,-75.1582302558,4.5,202,1,"Latin American, Caribbean, Dominican, Mexican, Restaurants"
"DoDo Bakery","2653 S 11th St","Philadelphia","PA","19148",39.9163107,-75.1659042976,4.5,12,1,"Coffee & Tea, Bubble Tea, Custom Cakes, Bakeries, Food"
"The Bar by Bluebird Distilling at the Bourse","111 S Independence Mall E","Philadelphia","PA","19106",39.9497563,-75.1480623,4,14,1,"Cocktail Bars, Bars, Nightlife"
"Goree","5514 Rising Sun Ave","Philadelphia","PA","19120",40.0334671,-75.1159524,3.5,19,1,"Imported Food, Specialty Food, Food, Ethnic Food, Restaurants, Halal, Senegalese, African"
"Trattoria Carina","2201 Spruce St","Philadelphia","PA","19103",39.9488052,-75.1779537,4.5,213,1,"Restaurants, American (Traditional), Italian"
"Al's Italiano Pizzeria & Ristorante","8202 Roosevelt Blvd","Philadelphia","PA","19152",40.0605711,-75.0448466,3.5,23,1,"Delis, Sandwiches, Restaurants, Pizza, Desserts, Italian, Food"
"Weavers Way Co-Op","559 Carpenter Ln","Philadelphia","PA","19119",40.0465949,-75.1960823,4.5,54,1,"Pets, Cheese Shops, Health Markets, Grocery, Food, Specialty Food"
"Lee's Breakfast","3152 N Broad St","Philadelphia","PA","19132",40.0014002,-75.153227,4,10,1,"Breakfast & Brunch, Restaurants"
"Coco's Cookies & Creamery","3632 Powelton Ave","Philadelphia","PA","19104",39.959605,-75.1950971,4.5,13,1,"Ice Cream & Frozen Yogurt, Food, Pretzels, Shaved Ice, Desserts, Patisserie/Cake Shop"
"Boricua Restaurant","1149 N 3rd St","Philadelphia","PA","19123",39.968903,-75.141464,5,31,1,"Caribbean, Spanish, Puerto Rican, Latin American, Restaurants"
"Bonks Bar","3467 Richmond St","Philadelphia","PA","19134",39.9863915,-75.0943523,4,35,1,"Seafood, Nightlife, Bars, American (Traditional), Restaurants"
"Master Wok","1934 Liacouras Walk","Philadelphia","PA","19122",39.982461,-75.156031,3.5,9,1,"Chinese, Restaurants"
"Three Elements","2501 N 2nd St","Philadelphia","PA","19133",39.9883801,-75.1351888,4.5,5,1,"Nightlife, Bars"
"Tandoori Of India","1100 Jackson St","Philadelphia","PA","19148",39.922337,-75.164854,4,71,1,"Indian, Venues & Event Spaces, Desserts, Food, Salad, Halal, Event Planning & Services, Restaurants"
"Jeni's Splendid Ice Creams","1322 Frankford Ave, Unit  101","Philadelphia","PA","19125",39.9708619,-75.134813,4,16,1,"Desserts, Ice Cream & Frozen Yogurt, Food"
"Ace of Steaks","3020 S Broad St","Philadelphia","PA","19145",39.9126407143,-75.1728923991,4.5,31,1,"Restaurants, Cheesesteaks, Sandwiches, Burgers"
"La Colombe Coffee","130 S 19th St","Philadelphia","PA","19103",39.9506099,-75.172368,4,614,1,"Restaurants, Food, Coffee & Tea"
"Red Owl Tavern","433 Chestnut St","Philadelphia","PA","19106",39.9492805,-75.1489288,3.5,618,1,"Breakfast & Brunch, American (New), Restaurants"
"Mike's Hot Dog Cart","24th & Passyunk Ave","Philadelphia","PA","19146",39.9223806,-75.1869289,5,22,1,"Food Stands, Restaurants"
"Claudio's Specialty Foods","924-26 S 9th St","Philadelphia","PA","19147",39.9381953,-75.1582206,4.5,148,1,"Food, Cheese Shops, Specialty Food, Meat Shops"
"Ricky Cafe","2-4 N 32nd St","Philadelphia","PA","19104",39.9555927735,-75.1885843277,4,5,1,"American (New), Sandwiches, Food, Restaurants, Street Vendors, Breakfast & Brunch"
"Philly's Finest Pizza","7962 Dungan Rd","Philadelphia","PA","19111",40.0681765,-75.068702,4.5,23,1,"Restaurants, Pizza"
"MexiCali","38th & Walnut","Philadelphia","PA","19104",39.954940073,-75.2023024894,4.5,50,1,"Mexican, Food Trucks, Restaurants, Food"
"7-Eleven","226 W Rittenhouse Square","Philadelphia","PA","19103",39.9492424097,-75.1739857577,3.5,15,1,"Coffee & Tea, Food, Convenience Stores"
"Tsaocaa & sushi corner","1042 South St","Philadelphia","PA","19147",39.942847,-75.159885,4,23,1,"Food, Bubble Tea"
"Justin's Snack Corner","601 S 52nd St","Philadelphia","PA","19143",39.9502962,-75.2266546,4.5,7,1,"Burgers, Restaurants, Steakhouses, Breakfast & Brunch"
"La Marqueza - Food Truck","Spring Garden St","Philadelphia","PA","19130",39.9610084469,-75.1666989129,4.5,23,1,"Mexican, Breakfast & Brunch, Food Trucks, Street Vendors, Restaurants, Food Stands, Food"
"Tabu Lounge & Sports Bar","254 S 12th St","Philadelphia","PA","19107",39.947086,-75.161151,3.5,121,1,"Nightlife, Bars, Lounges, Sports Bars, Gay Bars"
"Otolith Sustainable Seafood","2133 Huntingdon St","Philadelphia","PA","19125",39.9842403,-75.123013,5,10,1,"Seafood Markets, Specialty Food, Restaurants, Food, Seafood, Grocery"
"Ippolito's Seafood","3400 S Lawrence St","Philadelphia","PA","19148",39.9049727,-75.1588247,4,101,1,"Food, Grocery, Specialty Food, Sandwiches, American (Traditional), Butcher, Fish & Chips, Seafood Markets, Restaurants, Seafood, Salad"
"TyeMeka's Soul Food","5920 Germantown Ave","Philadelphia","PA","19144",40.0381549,-75.1769466,3.5,27,1,"Restaurants, Soul Food"
"Penang","117 N 10th St","Philadelphia","PA","19107",39.954044,-75.15598,3.5,1112,1,"Malaysian, Asian Fusion, Cambodian, Chinese, Restaurants, Thai"
"Admirals Club PHL Terminal F","8000 Essington Ave","Philadelphia","PA","19153",39.880694,-75.23737,4,10,1,"Bars, Nightlife, Airport Lounges"
"Mommy Telly's Famous BBQ","23 N 33rd St","Philadelphia","PA","19104",39.9565322,-75.1891783,5,14,1,"Food, Food Trucks, Barbeque, Restaurants, Filipino"
"HipCityVeg","127 S 18th St","Philadelphia","PA","19103",39.950774,-75.170397,4,1082,1,"Burgers, Vegetarian, Restaurants, Vegan"
"Foods On First","1429 Arch St","Philadelphia","PA","19102",39.954879,-75.1644704,3.5,96,1,"Sandwiches, Cheesesteaks, Restaurants, Event Planning & Services, Diners, Caterers, American (Traditional), Breakfast & Brunch"
"African Small Pot","6505 Woodland Ave","Philadelphia","PA","19142",39.9255169287,-75.2345210196,4,49,1,"Restaurants, Senegalese, African"
"Marrakesh","517 S Leithgow St","Philadelphia","PA","19147",39.9420436,-75.1495102,4.5,659,1,"Restaurants, Mediterranean, Moroccan"
"Dirty Franks","347 S 13th St","Philadelphia","PA","19107",39.9453923,-75.1627698,3.5,290,1,"Arts & Entertainment, Bars, Jazz & Blues, Dive Bars, Nightlife"
"Chickie's & Pete's","1526 Packer Ave","Philadelphia","PA","19145",39.9114175,-75.1745111,3.5,590,1,"Seafood, Nightlife, Sports Bars, Bars, Restaurants, American (New)"
"El Camino Real","1040 N 2nd St","Philadelphia","PA","19123",39.9673004,-75.1403984,3.5,1014,1,"Mexican, Tex-Mex, Restaurants, Barbeque"
"PrimoHoagies","128 S 11th St","Philadelphia","PA","19107",39.949216187,-75.1590522333,3.5,65,1,"Italian, Sandwiches, Restaurants"
"Capital Beer","2661 E Cumberland St","Philadelphia","PA","19125",39.976126,-75.119234,3.5,75,1,"Chinese, Restaurants, Sushi Bars"
"Rose's Water Ice","4240 Pechin St","Philadelphia","PA","19128",40.0281725,-75.2151447,4.5,30,1,"Grocery, Food, Specialty Food"
"King's Garden","8225 Germantown Ave","Philadelphia","PA","19118",40.074311,-75.202909,3.5,83,1,"Chinese, Cantonese, Restaurants, Beer, Wine & Spirits, Food"
"Khyber Pass Pub","56 S 2nd St","Philadelphia","PA","19106",39.9486423,-75.1441173,4,845,1,"Restaurants, American (Traditional), Bars, Pubs, Nightlife, Gastropubs"
"Lee How Fook","219 N 11th St","Philadelphia","PA","19107",39.9562631,-75.1570795,4,231,1,"Dim Sum, Restaurants, Cantonese, Chinese"
"Spice Finch","220 S 17th St","Philadelphia","PA","19103",39.9493776356,-75.169540979,4.5,325,1,"Breakfast & Brunch, Restaurants, Mediterranean"
"Village Whiskey","118 S 20th St","Philadelphia","PA","19103",39.9514165949,-75.1737677917,4,1553,1,"Bars, Nightlife, Whiskey Bars, Burgers, Restaurants, American (New)"
"Tsaocaa","4415 Main St","Philadelphia","PA","19127",40.026369,-75.2251847,4.5,53,1,"Ice Cream & Frozen Yogurt, Restaurants, Chicken Wings, Food, Bubble Tea"
"Top Tomato Bar & Pizza","116 S 11th St","Philadelphia","PA","19107",39.9495688,-75.1589615,3.5,232,1,"Pizza, Breakfast & Brunch, Nightlife, Sandwiches, Italian, Restaurants, Cheesesteaks, Food Delivery Services, Cocktail Bars, Sports Bars, Food, Bars"
"Bold Coffee Bar","1623 Ridge Ave","Philadelphia","PA","19130",39.9699772,-75.1639247,5,28,1,"Coffee & Tea, Food, Cafes, Restaurants"
"Bridesburg Pizza","4776 Richmond St","Philadelphia","PA","19137",40.0016758779,-75.0653133347,3.5,18,1,"Pizza, Restaurants"
"SPOT Gourmet Burgers","2821 W Girard Ave","Philadelphia","PA","19130",39.9747101233,-75.1825701445,4.5,282,1,"Restaurants, Food, Cheesesteaks, Food Trucks, Burgers"
"Starbucks","57-63 North Third St","Philadelphia","PA","19106",39.952062,-75.1451409228,3.5,63,1,"Coffee & Tea, Food"
"Federal Donuts","21 S 12th St","Philadelphia","PA","19107",39.951007,-75.159898,4.5,51,1,"Restaurants, Chicken Shop, Donuts, Food, Coffee & Tea"
"Sid Booker's Shrimp","4600 N Broad St","Philadelphia","PA","19140",40.0233829,-75.1483587,3.5,59,1,"Restaurants, Food, Seafood"
"Punch Buggy Brewing","1445 N American St","Philadelphia","PA","19122",39.9736435923,-75.1395907626,4,24,1,"Breweries, Brewpubs, Food, Hot Dogs, Restaurants, Sandwiches"
"Urban Village Brewing Co","1001 N 2nd St","Philadelphia","PA","19123",39.9667,-75.13997,4,221,1,"American (New), Bars, Food, Pubs, Breweries, Pizza, Restaurants, Nightlife"
"Pizzeria Vetri","1939 Callowhill St","Philadelphia","PA","19130",39.960888,-75.171213,4,651,1,"Italian, Pizza, Restaurants, Salad"
"Lemoncello Restaurant Philly","4903 N 5th St","Philadelphia","PA","19120",40.0258777,-75.1325899,4.5,6,1,"Latin American, Colombian, Restaurants"
"The Cow and The Curd","2210 Cottman Ave","Philadelphia","PA","19149",40.0487537,-75.062078,4,117,1,"Food, Food Trucks"
"Essene Market & Café","719 S 4th St","Philadelphia","PA","19147",39.9399804,-75.1492562,3.5,149,1,"Restaurants, Food, Vegetarian, Organic Stores, Health Markets, Bakeries, Specialty Food, Grocery"
"Mac Mart","104 South 18th St","Philadelphia","PA","19103",39.9514489,-75.1705213,4,321,1,"American (Traditional), Restaurants, American (New)"
"Wishbone","4034 Walnut St","Philadelphia","PA","19104",39.9539029,-75.204325,3.5,191,1,"Thai, Restaurants, Coffee & Tea, Chicken Wings, Comfort Food, Food, Specialty Food, American (New), Chicken Shop"
"SALERNO'S Ristorante & Pizzeria","6500-02 Rising Sun Ave","Philadelphia","PA","19111",40.0512797,-75.0943052,4,44,1,"Pizza, Restaurants, Italian"
"Rittenhouse Grill","1701 Locust St","Philadelphia","PA","19103",39.9489487,-75.1695317,3.5,290,1,"Wine Bars, Restaurants, Nightlife, Steakhouses, Seafood, Bars"
"Octopus Falafel Truck","20th & Ludlow St","Philadelphia","PA","19103",39.952932,-75.173293,4.5,420,1,"Food Trucks, Falafel, Food Stands, Food, Mediterranean, Restaurants, Middle Eastern"
"Bourbon & Branch","705 N 2nd St","Philadelphia","PA","19123",39.96207,-75.14104,4,392,1,"Bars, American (Traditional), Breakfast & Brunch, Music Venues, Arts & Entertainment, Nightlife, Restaurants"
"Pasqually's Pizza","200 S 43rd St","Philadelphia","PA","19104",39.9545323,-75.2089392,4,96,1,"Italian, Food Delivery Services, Beverage Store, Food, Pizza, Restaurants, Beer, Wine & Spirits"
"Chai Hong Market","2200 S 7th St","Philadelphia","PA","19148",39.921571,-75.1586309,4,5,1,"Ethnic Food, Specialty Food, Imported Food, Grocery, Food"
"Moy Fong Restaurant","7411 Stenton Ave","Philadelphia","PA","19150",40.0608409,-75.1672091,3.5,25,1,"Restaurants, Chinese"
"Convenient Food Mart","1326 Spruce St","Philadelphia","PA","19107",39.946666,-75.163993,4.5,12,1,"Delis, Nightlife, Food, Beer Bar, Convenience Stores, Bars, Restaurants"
"Blazin Flavorz","2406 Germantown Ave","Philadelphia","PA","19133",39.9881756049,-75.146304667,4.5,15,1,"Pretzels, Ice Cream & Frozen Yogurt, Food, Desserts"
"Boom Buns","6649 Castor Ave","Philadelphia","PA","19149",40.0428555,-75.0737309,4.5,25,1,"Dim Sum, Noodles, Restaurants, Food, Cantonese, Chinese, Asian Fusion"
"Pitruco Pizza Franklin's Table","3401 Walnut St","Philadelphia","PA","19104",39.9529913,-75.1922872,4.5,11,1,"Restaurants, American (New), Pizza, Italian"
"Mango Mango Dessert","6830 Bustleton Ave","Philadelphia","PA","19149",40.0413892,-75.0650277,4.5,18,1,"Coffee & Tea, Ice Cream & Frozen Yogurt, Desserts, Juice Bars & Smoothies, Food"
"Mom's Seafood","2312 N 29th St","Philadelphia","PA","19132",39.9914019,-75.1800551,4,5,1,"Food, Seafood Markets, Restaurants, Specialty Food, Seafood"
"Sunrise 2 Authentic Thai Food","250 E Girard Ave","Philadelphia","PA","19125",39.9694197,-75.1320426,4.5,10,1,"Restaurants, Thai"
"16th Street Seafood","1542 Tasker St","Philadelphia","PA","19145",39.9307459,-75.1715522,4,7,1,"Local Flavor, Restaurants, Specialty Food, Seafood Markets, Food, Seafood"
"Potato Corner","1001 Market St, Ste K07","Philadelphia","PA","19107",39.9521727155,-75.1555366884,4,6,1,"Food, Food Stands, Chicken Wings, Restaurants, Fast Food, Specialty Food"
"Main Street Snack Store","4239 Main St","Philadelphia","PA","19127",40.024495,-75.220937,4,6,1,"Grocery, Convenience Stores, Food, International Grocery, Imported Food, Candy Stores, Specialty Food"
"The Fresh Market","8208-18 Germantown Ave","Philadelphia","PA","19118",40.073447,-75.203065,3.5,38,1,"Grocery, Specialty Food, Food"
"Bistro La Baia","1700 Lombard St","Philadelphia","PA","19146",39.945162,-75.1702591,3.5,225,1,"Italian, Restaurants"
"Heart and Soul Bakery","201 S 25th St","Philadelphia","PA","19103",39.9500718,-75.1808116734,5,8,1,"Desserts, Bakeries, Food, Cupcakes"
"Vetri Cucina","1312 Spruce St","Philadelphia","PA","19107",39.9466441,-75.1631867,4.5,489,1,"Italian, Cuban, Restaurants"
"Crime & Punishment Brewing","2711 W Girard Ave","Philadelphia","PA","19130",39.9744581,-75.1808263,4.5,178,1,"Nightlife, Bars, Food, Breweries"
"The Foodery","837 N 2nd St","Philadelphia","PA","19123",39.9639423223,-75.1405212045,4,156,1,"Nightlife, Food, Delis, Bars, Beer, Wine & Spirits, Restaurants"
"7-Eleven","1084 Delaware Ave","Philadelphia","PA","19125",39.9658989991,-75.1324717902,3.5,7,1,"Propane, Food, Coffee & Tea, Local Services, Convenience Stores"
"Poke Burri","255 S  10th St","Philadelphia","PA","19107",39.9467455,-75.1575593,4.5,53,1,"Restaurants, Japanese"
"Jade Palace","1714 S 5th St","Philadelphia","PA","19148",39.9268645,-75.1542417,5,6,1,"Restaurants, Chinese"
"Rock N' Rolls Egg Rolls","1308 W Girard Ave","Philadelphia","PA","19123",39.9705409,-75.1577989,4,19,1,"Fast Food, Food Delivery Services, Desserts, American (New), Food Trucks, Restaurants, Chinese, Pizza, Food, Cheesesteaks"
"Don Panchito Mexican Grill","3180 Grant Ave","Philadelphia","PA","19114",40.0693548,-75.0084942,4,82,1,"Halal, Restaurants, Mexican, Steakhouses"
"Kumo Hibachi Sushi","17 S 43rd St","Philadelphia","PA","19104",39.9571569052,-75.208009522,3.5,39,1,"Restaurants, Food Delivery Services, Food, Sushi Bars"
"Ben & Jerry’s","218 S 40th St","Philadelphia","PA","19104",39.9535368,-75.2029584,3.5,37,1,"Ice Cream & Frozen Yogurt, Caterers, Event Planning & Services, Custom Cakes, Food, Desserts"
"Tokai Sushi Hibachi Steakhouses","1699 Grant Ave","Philadelphia","PA","19115",40.0865991051,-75.0379489,4,209,1,"Asian Fusion, Sushi Bars, Japanese, Steakhouses, Restaurants"
"Polka Deli Inc","2719 E Allegheny Ave","Philadelphia","PA","19134",39.9837685,-75.1017843,5,9,1,"Delis, Restaurants, Sandwiches"
"Hale & True","613 S 7th St","Philadelphia","PA","19147",39.9416368379,-75.1538993418,4.5,60,1,"Cideries, Food, Bars, Beer, Wine & Spirits, Nightlife, Beer Bar, Kombucha, Cocktail Bars"
"Mexican Grill Stand","1736 N 13th St","Philadelphia","PA","19122",39.979529,-75.155748,4.5,8,1,"Mexican, Restaurants, Street Vendors, Food, Food Trucks"
"Bread & Butter Philly - Breakfast Junction","1517 E Wadsworth Ave","Philadelphia","PA","19150",40.0797906,-75.1736235982,4.5,22,1,"Food, American (Traditional), Breakfast & Brunch, Juice Bars & Smoothies, Restaurants"
"Crazy Sushi","1837 Chestnut St","Philadelphia","PA","19103",39.952045,-75.17167,4,550,1,"Restaurants, Japanese, Sushi Bars"
"The Freshworks of Port Richmond","2634 Belgrade St","Philadelphia","PA","19125",39.97961,-75.117647,4.5,66,1,"Delis, Salad, Cheesesteaks, Wraps, Restaurants, Sandwiches"
"Sister Muhammad's Kitchen","4441 Germantown Ave","Philadelphia","PA","19140",40.022826208,-75.1590914279,4,126,1,"Restaurants, Halal, American (Traditional), Bakeries, Food, Soul Food"
"Wawa Food Markets","14101 Bustleton Ave","Philadelphia","PA","19102",40.1319593894,-75.0115236634,3.5,9,1,"Food, Convenience Stores, Delis, Restaurants"
"La Esquina del Bronco","2265 N Howard St","Philadelphia","PA","19122",39.9848367,-75.1331135,3.5,5,1,"Restaurants, Latin American"
"Wawa","6701 Ridge Ave","Philadelphia","PA","19128",40.0403385055,-75.2234230242,3.5,48,1,"Food, Restaurants, Delis, Convenience Stores, Sandwiches, Coffee & Tea"
"Pho Street","2104 Market St","Philadelphia","PA","19103",39.9536619,-75.1754204,4,150,1,"Restaurants, Vietnamese"
"Marmont Steakhouse & Bar","222 Market St","Philadelphia","PA","19106",39.9497397,-75.1445806,3.5,316,1,"American (Traditional), Steakhouses, Nightlife, Bars, Seafood, Restaurants, Lounges"
"Tria Cafe Wash West","1137 Spruce St","Philadelphia","PA","19107",39.9466238,-75.1609139,4.5,770,1,"Beer, Wine & Spirits, Wine Bars, Modern European, American (New), Cheese Shops, Specialty Food, Food, Restaurants, Bars, Nightlife"
"Wawa","3341 Grant Ave","Philadelphia","PA","19114",40.0688844854,-75.0052062453,3.5,8,1,"Restaurants, Food, Gas Stations, Coffee & Tea, Sandwiches, Automotive, Delis, Convenience Stores"
"Federal Donuts","701 N Seventh St","Philadelphia","PA","19123",39.9641791314,-75.1494241306,4,321,1,"Restaurants, Donuts, Chicken Wings, Food, Coffee & Tea"
"Sansom Kabob House","1300 South St","Philadelphia","PA","19147",39.9432697,-75.1634989,4,106,1,"Soup, Vegetarian, Afghan, Kebab, Indian, Restaurants"
"Algorithm Restaurants","","Philadelphia","PA","19125",40.116933,-75.355294,5,10,1,"Food, Food Trucks, Pop-Up Restaurants, Business Consulting, Professional Services, Event Planning & Services, Street Vendors, Restaurants, Mexican, Burgers, Party Equipment Rentals, Tacos, Vegan"
"Say Cheese","","Philadelphia","PA","19104",39.9613329598,-75.1550674438,4,34,1,"Restaurants, Food, Sandwiches, Street Vendors"
"Pho Mi Rittenhouse","106 S 20th St","Philadelphia","PA","19103",39.9517712444,-75.1737245,5,20,1,"Restaurants, Vietnamese"
"DGX","1001 N 2Nd St","Philadelphia","PA","19123",39.9665629,-75.1399899,4,9,1,"Convenience Stores, Coffee & Tea, Grocery, Discount Store, Shopping, Food"
"Flannel","1819 E Passyunk Ave","Philadelphia","PA","19148",39.9272227151,-75.1663260162,4.5,113,1,"Southern, American (Traditional), Breakfast & Brunch, Restaurants"
"Rowhouse Grocery","1713 McKean St","Philadelphia","PA","19145",39.9264200131,-75.1746901497,5,9,1,"Specialty Food, Grocery, Coffee & Tea, Convenience Stores, Food"
"Boostin' Bowls","100 Levering St","Philadelphia","PA","19127",40.0261216129,-75.2246050321,4.5,77,1,"Juice Bars & Smoothies, Acai Bowls, Restaurants, American (New), Food"
"Lombard Swim Club","2040 Lombard St","Philadelphia","PA","19146",39.9458521,-75.1761041,3.5,7,1,"Beaches, Active Life, Swimming Pools, Restaurants, Greek"
"Wingstop","7124 Ridge Ave, Ste 10","Philadelphia","PA","19128",40.0442404,-75.2317485,3.5,6,1,"Restaurants, Chicken Wings"
"Xenos Candy 'N' Gifts","231 Chestnut St","Philadelphia","PA","19106",39.9486947,-75.1452689,4,95,1,"Specialty Food, Food, Candy Stores, Gift Shops, Shopping, Souvenir Shops, Flowers & Gifts"
"Rita's Italian Ice","2499 H Aramingo Ave","Philadelphia","PA","19125",39.9753298,-75.1196932,4,6,1,"Ice Cream & Frozen Yogurt, Desserts, Food, Shaved Ice"
"Ants Pants Café","2212 S St","Philadelphia","PA","19146",39.9451562,-75.179105,4,531,1,"Restaurants, Coffee & Tea, Sandwiches, Desserts, Food, Breakfast & Brunch"
"Golden China Wok Restaurant","3447 Germantown Ave","Philadelphia","PA","19140",40.0057676,-75.1494953,4.5,9,1,"Restaurants, Chinese"
"Midori Sushi","516 S 5th St","Philadelphia","PA","19147",39.9423842,-75.1507361,5,18,1,"Salad, Sushi Bars, Japanese, Restaurants"
"Mayura Indian Restaurant","9321-23 Krewstown Rd","Philadelphia","PA","19115",40.086176,-75.045126,4.5,19,1,"Indian, Food, Soup, Desserts, Restaurants"
"Honey's Sit-N-Eat","800 N 4th St","Philadelphia","PA","19123",39.96399,-75.1444822,4,1396,1,"Southern, Restaurants, American (Traditional)"
"Loews Philadelphia Hotel","1200 Market St","Philadelphia","PA","19107",39.9517461,-75.1602286,3.5,505,1,"Event Planning & Services, Hotels & Travel, Restaurants, Hotels, Seafood"
"B&B Breakfast and Lunch","5601 Germantown Ave","Philadelphia","PA","19144",40.0353055,-75.173616,3.5,30,1,"Breakfast & Brunch, Restaurants"
"Darnel’s Cakes","444 N 3rd St","Philadelphia","PA","19123",39.9583181,-75.1449356,4,5,1,"Food, Bakeries, Coffee & Tea"
"Richie's","1835 N 12th St, Ste 9, Temple University Main Campus","Philadelphia","PA","19122",39.9809158,-75.153284,4.5,50,1,"Food Stands, Restaurants, Sandwiches, Pizza, Burgers, Breakfast & Brunch, Delis, Food, Coffee & Tea"
"Marathon","121 S 16th St","Philadelphia","PA","19102",39.9504833638,-75.1673305865,3.5,593,1,"Sandwiches, American (New), Lounges, Nightlife, Bars, Restaurants, Breakfast & Brunch"
"The Barbary","951 Frankford Ave","Philadelphia","PA","19125",39.965554,-75.1342204,4,197,1,"Arts & Entertainment, Dance Clubs, Music Venues, Bars, Nightlife"
"1 Stop Pizza","3701 Germantown Ave","Philadelphia","PA","19140",40.0093835,-75.1506617,3.5,8,1,"Food, Grocery, Burgers, Pizza, Restaurants, Italian, Delis"
"Scannicchio's","2500 S Broad & Porter","Philadelphia","PA","19145",39.919346,-75.171033,4,187,1,"Seafood, Italian, Restaurants, Mediterranean"
"Mary's Lunch","3600 Richmond St","Philadelphia","PA","19134",39.9879973,-75.092056,4.5,7,1,"Restaurants, Diners, Breakfast & Brunch"
"3J's Food Market","801 N 2nd St","Philadelphia","PA","19123",39.9629932991,-75.1406934857,4.5,46,1,"Cheesesteaks, Grocery, Delis, Food, Restaurants"
"R&D","1206 Frankford Ave","Philadelphia","PA","19125",39.9691718956,-75.1345449025,4.5,52,1,"Lounges, Nightlife, Cocktail Bars, Bars"
"Tran's Chinese Food Cart","216 N 33rd St","Philadelphia","PA","19104",39.96009,-75.189482,4,19,1,"Chinese, Food Stands, Food, Food Trucks, Restaurants"
"Italiano's","2551 S 12th St","Philadelphia","PA","19148",39.917764,-75.1671583,4.5,51,1,"Desserts, Restaurants, Italian, Food, Ice Cream & Frozen Yogurt"
"To-Yo Japanese Restaurant","13032 Bustleton Ave","Philadelphia","PA","19116",40.1246991,-75.0155235,4,43,1,"Restaurants, Sushi Bars, Japanese"
"Chill On the Hill","5 E Highland Ave","Philadelphia","PA","19118",40.0765359514,-75.2062382294,4,52,1,"Ice Cream & Frozen Yogurt, Desserts, Food"
"Murph's Bar","202 E Girard Ave","Philadelphia","PA","19125",39.9689397,-75.1334333,4,315,1,"Italian, Dive Bars, Sports Bars, Nightlife, Irish Pub, Restaurants, Bars, Pubs"
"Bui's","38th St & Spruce St","Philadelphia","PA","19195",39.9512903,-75.1992768,4.5,104,1,"Restaurants, Vietnamese, Sandwiches, Local Flavor, Food Stands"
"New Tavern Bar","232 S 45th St","Philadelphia","PA","19104",39.9542243,-75.212136,4,10,1,"Venues & Event Spaces, Nightlife, Restaurants, Event Planning & Services, Ethiopian, Bars, American (Traditional), Hookah Bars"
"Spring Chinese Restaurant","3739 Lancaster Ave","Philadelphia","PA","19104",39.9602344,-75.1966365,3.5,58,1,"Chinese, Restaurants"
"Czerw's Kielbasy","3370 Tilton St","Philadelphia","PA","19134",39.986119,-75.0979492,5,150,1,"Food, Specialty Food, Meat Shops"
"Green Eggs Cafe","2327 Gaul St","Philadelphia","PA","19125",39.9769736,-75.1241144,3.5,93,1,"Breakfast & Brunch, Restaurants"
"Porcini","2048 Sansom St","Philadelphia","PA","19103",39.951348,-75.1751139,3.5,317,1,"Restaurants, Italian"
"Wawa Food Markets","401 N 21st St","Philadelphia","PA","19130",39.9622478,-75.1729739,4,15,1,"Restaurants, Delis"
"Mayfair Pizza","7424 Frankford Ave","Philadelphia","PA","19136",40.0384395,-75.0368603,3.5,11,1,"Restaurants, Pizza"
"Federal Donuts","1219 S 2nd St","Philadelphia","PA","19147",39.932223,-75.147463,4,530,1,"Restaurants, Korean, American (Traditional), Breakfast & Brunch, Donuts, Food, Coffee & Tea"
"Tartes Pastry Shop","212 Arch St","Philadelphia","PA","19106",39.9518037,-75.1438627,4,181,1,"Desserts, Bakeries, Food, Restaurants"
"Bubblefish","909 Arch St","Philadelphia","PA","19107",39.9536791,-75.1551081,4,544,1,"Restaurants, Sushi Bars, Japanese, Bubble Tea, Taiwanese, Food"
"Revolution House","200 Market St","Philadelphia","PA","19106",39.9497082,-75.1439349,3.5,554,1,"Pizza, Beer, Wine & Spirits, Food, Nightlife, American (New), Italian, Restaurants, Breakfast & Brunch, Bars, American (Traditional)"
"Mediterranean Banquet Hall","2033 S Bancroft St","Philadelphia","PA","19145",39.9253058646,-75.1732910797,5,10,1,"Venues & Event Spaces, Wedding Planning, Mediterranean, Party & Event Planning, Food Delivery Services, Restaurants, Caterers, Italian, Event Planning & Services, Food"
"Tacconelli's Pizzeria","2604 E Somerset St","Philadelphia","PA","19134",39.980483,-75.11303,4,372,1,"Pizza, Restaurants"
"Chapterhouse Café & Gallery","620 S 9th St","Philadelphia","PA","19147",39.9419516309,-75.1573562007,4.5,477,1,"Restaurants, Food, Coffee & Tea"
"Gilben's Bakery","7405 Stenton Ave","Philadelphia","PA","19150",40.0607621001,-75.167045854,4,103,1,"Sandwiches, Food, Cupcakes, Bakeries, Restaurants"
"Lost in the Woods","357 Main Ave","Philadelphia","PA","08340",40.022959,-75.21933,3.5,5,1,"Food, Food Trucks"
"Devon Seafood Grill","225 S 18th St","Philadelphia","PA","19103",39.94949,-75.17066,3.5,1159,1,"Bars, Restaurants, Nightlife, Seafood"
"Johnnie's Italian Restaurant","4201 Comly St","Philadelphia","PA","19135",40.0227483,-75.0634418,4,17,1,"Venues & Event Spaces, Italian, Event Planning & Services, Pizza, Seafood, Caterers, Restaurants"
"Amada","217 Chestnut St","Philadelphia","PA","19106",39.9485863525,-75.1449131188,4,2109,1,"Spanish, Restaurants, Breakfast & Brunch, Tapas Bars, Iberian"
"Buk Chon Korean Cuisine","132 Chestnut St","Philadelphia","PA","19106",39.9482156,-75.143697,4.5,221,1,"Korean, Restaurants, Asian Fusion"
"Café y Chocolate","1532 Snyder Ave","Philadelphia","PA","19145",39.924584,-75.172676,4.5,369,1,"Mexican, Restaurants, Vegetarian, Coffee & Tea, Juice Bars & Smoothies, Cafes, Desserts, Bakeries, Food, Breakfast & Brunch"
"Oishii","138 Chestnut St","Philadelphia","PA","19106",39.948271,-75.1438587,4.5,28,1,"Japanese, Sushi Bars, Ramen, Restaurants"
"Vince's Pizzeria of Fishtown","965 Frankford Ave","Philadelphia","PA","19125",39.9658107,-75.1343005,5,22,1,"Restaurants, Pizza"
"Maplewood Nutrition & Dietary Food Shop","51 Maplewood Ave","Philadelphia","PA","19144",40.0334158,-75.1754611,5,6,1,"Food, Cosmetics & Beauty Supply, Specialty Food, Shopping, Health Markets, Beauty & Spas, Restaurants, Vegetarian"
"BRÜ Craft & Wurst","1318 Chestnut St","Philadelphia","PA","19107",39.9503152253,-75.1624865435,3.5,526,1,"German, Beer Bar, Food, Bars, Nightlife, Restaurants, Beer, Wine & Spirits, Beer Gardens"
"Bank & Bourbon","1200 Market St","Philadelphia","PA","19107",39.9517241479,-75.1601829009,3.5,390,1,"Restaurants, Gastropubs, American (New)"
"Le Viet Restaurant","1019 S 11th St","Philadelphia","PA","19147",39.9376867,-75.1610435,4,322,1,"Vietnamese, Restaurants"
"Lovash Indian Cart","37TH Spruce St","Philadelphia","PA","19104",39.9509213207,-75.1964378357,4,17,1,"Food Trucks, Restaurants, Indian, Food"
"Neighborhood Ramen","617 S 3rd St","Philadelphia","PA","19147",39.9408923,-75.147458,4,99,1,"Ramen, Japanese, Restaurants"
"Tsaocaa","1715 Chestnut St","Philadelphia","PA","19103",39.9516409,-75.1693482,3.5,20,1,"Food, Bubble Tea, Juice Bars & Smoothies"
"Saladworks","2508-10 Welsh Rd","Philadelphia","PA","19152",40.0730228774,-75.0350286614,3.5,29,1,"Restaurants, Vegetarian, Sandwiches, American (New), Salad, Soup, American (Traditional)"
"El Purepecha","315 N 12th St","Philadelphia","PA","19107",39.9581334616,-75.158424899,4.5,239,1,"Mexican, Restaurants"
"SS Franklin Fountain","299 S Christopher Columbus Blvd","Philadelphia","PA","19106",39.9443204479,-75.1412815601,3.5,43,1,"Food, Ice Cream & Frozen Yogurt"
"Daleng Restaurant","4653 Walnut St","Philadelphia","PA","19139",39.9560363,-75.2154296,4.5,141,1,"Restaurants, Cambodian, Thai, Vietnamese, Asian Fusion"
"Madame Saito - Queen of Sushi","122 Lombard St","Philadelphia","PA","19147",39.9419236,-75.1447558,4.5,6,1,"Japanese, Arts & Crafts, Caterers, Restaurants, Shopping, Event Planning & Services, Cooking Classes"
"Cheu Fishtown","1416 Frankford Ave","Philadelphia","PA","19125",39.9722034535,-75.1346028596,4,250,1,"Restaurants, Noodles, Asian Fusion, Japanese"
"John Yi Fish Market","51 N 12th St","Philadelphia","PA","19107",39.953163,-75.1591,4,36,1,"Seafood Markets, Specialty Food, Food"
"El Merkury","2104 Chestnut St","Philadelphia","PA","19103",39.952185,-75.1758693,4.5,162,1,"Desserts, Restaurants, Gluten-Free, Food, Salvadoran, Latin American, American (Traditional)"
"La Mula Terca","2053 S Beechwood St","Philadelphia","PA","19145",39.9260794,-75.1820459,4.5,91,1,"American (New), Restaurants, Tacos, Mexican, Latin American, Vegetarian, New Mexican Cuisine, Breakfast & Brunch"
"Franklin Ice Cream Bar","112 Market St","Philadelphia","PA","19106",39.9496546054,-75.1427625423,4,47,1,"Ice Cream & Frozen Yogurt, Desserts, Food"
"Vietnam Restaurant","221 N 11th St","Philadelphia","PA","19107",39.9563297,-75.157069,4,421,1,"Vietnamese, Restaurants"
"Hip Hemp Cafe","607 S 7th St","Philadelphia","PA","19147",39.9419303,-75.1537505,4.5,11,1,"Health & Medical, Beauty & Spas, Massage Therapy, Doctors, Desserts, Restaurants, Naturopathic/Holistic, Internet Cafes, Massage, Food, Cafes, Coffee & Tea, Cannabis Dispensaries, Shopping, Vape Shops, Cannabis Clinics, Vitamins & Supplements"
"Dock Street Cannery and Tasting Room","705 S 50th St","Philadelphia","PA","19143",39.94761,-75.22253,4,13,1,"Arts & Entertainment, Cocktail Bars, Breweries, Lounges, Wine Tasting Room, Nightlife, Beer Bar, Bars, Food, Wineries"
"Al Sultan International Gourmet Market","1545 W Passyunk Ave","Philadelphia","PA","19145",39.9251689,-75.17258,5,6,1,"Ethnic Food, Food, Imported Food, Herbs & Spices, Grocery, Meat Shops, Specialty Food"
"Metropolitan Bakery","12th and Arch","Philadelphia","PA","19107",39.9539394,-75.1594308,4,52,1,"Food, Bakeries"
"Peet's Coffee & Tea","8000 Essington Ave","Philadelphia","PA","19153",39.8780267127,-75.2394030397,3.5,26,1,"Coffee & Tea, Cafes, Restaurants, Food"
"Alaqsa Halal Meats & Groceries","419 E Wyoming Ave","Philadelphia","PA","19120",40.020892,-75.1174581,4.5,7,1,"Ethnic Food, Grocery, Specialty Food, Imported Food, Food"
"Speedy's Pizza","4013 Fairdale Rd","Philadelphia","PA","19154",40.084572,-74.9727333,3.5,16,1,"Pizza, Restaurants"
"Starbucks","600 9th St","Philadelphia","PA","19147",39.9425249,-75.157186,3.5,52,1,"Food, Coffee & Tea"
"Carangi Baking","2655 S Iseminger St","Philadelphia","PA","19148",39.9166328,-75.1685035,4.5,34,1,"Bakeries, Cafes, Food, Sandwiches, Restaurants, Italian"
"Ground Up Coffee Shop","1926 E Passyunk Ave","Philadelphia","PA","19148",39.9260608,-75.1681768844,4.5,24,1,"Food, Coffee & Tea, Sandwiches, Bakeries, Restaurants, Breakfast & Brunch, Cafes"
"Side of the Road Jerk Chicken","6554 North Lambert St.","Philadelphia","PA","19138",40.0546082,-75.1545153,4,51,1,"Food Trucks, Local Flavor, Food, Restaurants, Barbeque, Food Stands"
"Oregon Diner","302 W Oregon Ave","Philadelphia","PA","19148",39.9140204,-75.1529839,3.5,209,1,"Restaurants, Bakeries, Diners, Food"
"Jembatan 5","932 S 10th St","Philadelphia","PA","19147",39.9383367,-75.159771,4.5,61,1,"Indonesian, Restaurants"
"Shanks Original","901 S Columbus Blvd","Philadelphia","PA","19147",39.934831,-75.142057,3.5,132,1,"Breakfast & Brunch, Sandwiches, Restaurants, Cheesesteaks"
"Makumba","4501 Castor Ave","Philadelphia","PA","19124",40.0162496,-75.096383,4,7,1,"Hookah Bars, Lounges, Dance Clubs, Bars, Music Venues, Arts & Entertainment, Nightlife"
"Mr Jay's Place Bar","1700 Fairmount Ave","Philadelphia","PA","19130",39.9669687,-75.1655183,4,11,1,"Dive Bars, Pool Halls, Nightlife, Bars, Sports Bars, Lounges, Bar Crawl"
"South Philadelphia Tap Room","1509 Mifflin St, Newbold","Philadelphia","PA","19145",39.927216,-75.171477,4,530,1,"Breakfast & Brunch, Bars, Nightlife, Restaurants, Gastropubs, Pubs"
"Angela's Pizza","9918 Roosevelt Blvd","Philadelphia","PA","19115",40.09453,-75.018255,4,22,1,"Restaurants, Pizza"
"The Logan Philadelphia, Curio Collection by Hilton","1 Logan Sq","Philadelphia","PA","19103",39.9569323,-75.1702705,3.5,211,1,"Hotels, Event Planning & Services, Nightlife, Hotels & Travel, Bars, Venues & Event Spaces"
"Del Frisco's Grille","225 S Broad St","Philadelphia","PA","19107",39.9485224,-75.1640749,3.5,132,1,"Breakfast & Brunch, Diners, Nightlife, Restaurants, Steakhouses, Bars"
"Halal Food Special","20 N 16th St","Philadelphia","PA","19103",39.9532117052,-75.1668324715,4.5,7,1,"Restaurants, Halal, Food, Food Trucks"
"Independence After Hours","600 Chestnut St","Philadelphia","PA","19106",39.9491008173,-75.1491766423,4.5,6,1,"Tours, Dinner Theater, Historical Tours, Hotels & Travel, Walking Tours, Restaurants"
"SouthHouse","2535 S 13th St","Philadelphia","PA","19148",39.91804,-75.168707,4.5,158,1,"Bars, American (New), Nightlife, Restaurants, Pubs, Gluten-Free"
"Diner At Manayunk","4371 Main St","Philadelphia","PA","19127",40.0259511,-75.2243072,4,86,1,"Breakfast & Brunch, Restaurants"
"Good Day Eatery","1735 Market St","Philadelphia","PA","19103",39.9536631,-75.1695865,3.5,34,1,"Bagels, Food, Breakfast & Brunch, Event Planning & Services, Pizza, Restaurants, Caterers, Sandwiches, Food Delivery Services"
"Burrito Feliz Philly","2000 S 7th St","Philadelphia","PA","19148",39.9240450948,-75.1581183892,5,24,1,"Food Trucks, Food"
"John's Roast Pork","14 E Snyder Ave","Philadelphia","PA","19148",39.9210273851,-75.1450284438,4.5,1564,1,"Sandwiches, Salad, American (Traditional), Cheesesteaks, Breakfast & Brunch, Active Life, American (New), Beaches, Restaurants"
"Marchiano's Bakery","4653 Umbria St","Philadelphia","PA","19127",40.0308856,-75.2301417,4.5,118,1,"Bakeries, Restaurants, Food"
"Drunk Crab","425 W Girard Ave","Philadelphia","PA","19123",39.9702621176,-75.1442193308,4.5,18,1,"Restaurants, Chicken Wings, Asian Fusion, Japanese, Seafood"
"Nick's Famous Pizza","5810 Greene St","Philadelphia","PA","19144",40.0351703,-75.1787516,3.5,12,1,"Pizza, Restaurants"
"Salt & Pepper Deli III","1102 S 47th St","Philadelphia","PA","19143",39.945704,-75.2138797,4,18,1,"Convenience Stores, Sandwiches, Restaurants, Food, Beer, Wine & Spirits"
"Rieker's Prime Meats","7979 Oxford Ave","Philadelphia","PA","19111",40.0768575019,-75.0850222427,4.5,71,1,"Meat Shops, Food, Restaurants, Butcher, Grocery, Specialty Food, German"
"Happy Lamb Hot Pot","1017 Arch St, Fl 1","Philadelphia","PA","19107",39.9539683,-75.1570234,4,169,1,"Mongolian, Restaurants, Chinese, Hot Pot"
"New Delhi Indian Restaurant","4004 Chestnut St","Philadelphia","PA","19104",39.9553921,-75.2026195,4,514,1,"Buffets, Pakistani, Restaurants, Indian, Vegan, Vegetarian"
"Rosy's Taco Bar","2220 Walnut St","Philadelphia","PA","19103",39.9508956186,-75.178367123,4,282,1,"Tacos, Nightlife, Bars, Mexican, Restaurants"
"Kauffman's Lancaster County Produce","12th  St & Arch St","Philadelphia","PA","19107",39.953567,-75.159471,3.5,8,1,"Farmers Market, Specialty Food, Food"
"T & F Farmers Pride","8101 Ridge Ave","Philadelphia","PA","19128",40.0571665,-75.2357367,4.5,92,1,"Specialty Food, Delis, Sandwiches, Fruits & Veggies, International Grocery, Grocery, Food, Restaurants, Farmers Market"
"Murphy's Tavern","5892 Henry Ave","Philadelphia","PA","19128",40.0313311,-75.2079192,3.5,19,1,"Nightlife, Pubs, Restaurants, Bars, Pizza"
"Bella's Breakfast & Lunch","2159 Ridge Ave","Philadelphia","PA","19121",39.9795761,-75.1707379,4,12,1,"Breakfast & Brunch, Restaurants"
"The Lucky Well - Spring Arts","990 Spring Garden St","Philadelphia","PA","19123",39.961265,-75.1541276,5,27,1,"Chicken Shop, Barbeque, Restaurants"
"Flaming Basil","","Philadelphia","PA","19104",39.9583587,-75.1953934,4,12,1,"Food Trucks, Restaurants, Laotian, Thai, Food"
"Pho Ga Thanh Thanh","1100 Washington Ave","Philadelphia","PA","19147",39.9373886,-75.1616647,4.5,30,1,"Vietnamese, Restaurants"
"Saxbys ","1902 Liacouras Walk","Philadelphia","PA","19122",39.9817208259,-75.1560784911,3.5,45,1,"Coffee & Tea, Juice Bars & Smoothies, Food"
"Sahara Grill","1334 Walnut St","Philadelphia","PA","19107",39.9491798,-75.1635651,4,322,1,"Mediterranean, Middle Eastern, Restaurants"
"East Coast Wings & Grill","2539 Castor Ave, Aramingo Super Ctr","Philadelphia","PA","19134",39.99391726,-75.09156534,3.5,112,1,"Chicken Wings, Bars, Fast Food, Sandwiches, American (Traditional), Nightlife, Restaurants, Burgers"
"Carmen's Famous Italian Hoagies","12th St & Arch St","Philadelphia","PA","19107",39.9532735358,-75.1593375206,3.5,589,1,"Restaurants, Cheesesteaks, Sandwiches, Salad"
"QT Vietnamese Sandwich","","Philadelphia","PA","19104",39.9558866,-75.1934096,4,6,1,"Vietnamese, Food Trucks, Sandwiches, Restaurants, Food"
"Good Dog Bar","224 S 15th St","Philadelphia","PA","19102",39.948793,-75.1662055,4,1279,1,"American (Traditional), Restaurants, Bars, Nightlife, Burgers, Sandwiches, Soup, Pubs"
"Ekta Indian Cuisine","1142 Crease St","Philadelphia","PA","19125",39.9692049,-75.1325733,4,436,1,"Restaurants, Pakistani, Indian"
"Xin Xing House","6057 Castor Ave","Philadelphia","PA","19149",40.0354613,-75.0808778,4,5,1,"Chinese, Restaurants"
"Kabuki Sushi","45 N 13th St","Philadelphia","PA","19107",39.9535852,-75.1609794,4,400,1,"Japanese, Sushi Bars, Restaurants"
"Rayaki - Philadelphia","2818 Cottman Ave","Philadelphia","PA","19149",40.04378,-75.05346,4,37,1,"Ramen, Japanese, Restaurants, Izakaya"
"Las Lomas Restaurant","1167 S 9th St","Philadelphia","PA","19147",39.9345779,-75.1586537,4,10,1,"Mexican, Grocery, Restaurants, Food, Bakeries"
"Morrone's Water Ice","200 N 63rd St","Philadelphia","PA","19139",39.965957,-75.2465046,4.5,15,1,"Food, Ice Cream & Frozen Yogurt"
"Bleu Sushi","262 S 10th St","Philadelphia","PA","19107",39.9463986271,-75.157800703,4.5,938,1,"Sushi Bars, Japanese, Restaurants, Asian Fusion, Tapas/Small Plates"
"Twisted Indian Wraps","3300 Fairmount Ave","Philadelphia","PA","19104",39.9660935124,-75.1910107337,4,17,1,"Restaurants, Indian, Latin American, Fast Food, Food, Food Delivery Services"
"Chopstick House","1626 S Columbus Blvd","Philadelphia","PA","19148",39.926769,-75.14621,4,10,1,"Chinese, Restaurants"
"Benna's Cafe","8TH And Wharton St","Philadelphia","PA","19147",39.932994,-75.157736,4,97,1,"Restaurants, Vegan, Breakfast & Brunch, Coffee & Tea, Food"
"Blue Corn","940 S 9th St","Philadelphia","PA","19147",39.9377652566,-75.1583243076,4.5,350,1,"Food, Beer, Wine & Spirits, Nightlife, Restaurants, Bars, Cocktail Bars, Mexican"
"Gooey Looie's","231 McClellan St","Philadelphia","PA","19148",39.925315,-75.1507189,4.5,251,1,"Sandwiches, Cheesesteaks, Restaurants, Delis"
"Imperial Palace Chinese Restaurant","5921 N Broad St","Philadelphia","PA","19141",40.0435209,-75.1433762,4,12,1,"Chinese, Restaurants, American (Traditional), Fast Food"
"Soulfedphilly","6424 Castor Ave","Philadelphia","PA","19149",40.040537,-75.0769706,3.5,128,1,"Seafood, Bars, Nightlife, Restaurants"
"Tyson Bees","","Philadelphia","PA","19104",39.9591692932,-75.1984187251,3.5,147,1,"Food Trucks, Mexican, Korean, Food, Restaurants, Food Stands"
"The Night Kitchen","7725 Germantown Ave","Philadelphia","PA","19118",40.0683287,-75.1978484,4.5,189,1,"Shopping, Bakeries, Restaurants, Desserts, Breakfast & Brunch, Home & Garden, Food, Kitchen & Bath, Specialty Food"
"Tavern On the Hill","8636 Germantown Ave","Philadelphia","PA","19118",40.077194,-75.2088314,4,140,1,"Restaurants, Nightlife, American (New), American (Traditional), Bars, Pubs, Lounges"
"Vesper Sporting Club - Center City","223 S Sydenham St","Philadelphia","PA","19102",39.9489408,-75.1668194,3.5,157,1,"Dance Clubs, Arts & Entertainment, Diners, Bars, Music Venues, Restaurants, Sports Bars, American (Traditional), Breakfast & Brunch, Lounges, Cocktail Bars, Seafood, Nightlife, American (New)"
"Starbucks","1002 S Broad St","Philadelphia","PA","19146",39.938269,-75.166936,3.5,5,1,"Food, Coffee & Tea"
"Mi Puebla Restaurant","7157 Germantown Ave","Philadelphia","PA","19119",40.0599953,-75.1907261,3.5,108,1,"Restaurants, Mexican"
"HipCityVeg","232 N Radnor Chester Rd","Philadelphia","PA","19087",40.0414717,-75.3636467,3.5,15,1,"Restaurants, Burgers, Vegetarian, Sandwiches"
"CYM Island Kitchen","4658 G St","Philadelphia","PA","19120",40.0196839,-75.1107755,3.5,15,1,"Spanish, Caribbean, Restaurants, Latin American"
"Aldo and Manny Pizza and Pasta","1431 Arch St","Philadelphia","PA","19102",39.9547868,-75.1644935,4,56,1,"Fast Food, Restaurants, Specialty Food, Food, American (Traditional), Pizza, Italian, Pasta Shops"
"SoBol-University City","3736 Spruce St","Philadelphia","PA","19104",39.9512731815,-75.1979261264,4,43,1,"Food, Acai Bowls, Restaurants, Wraps, Cafes, Juice Bars & Smoothies"
"Green Garden","237 S 10th St","Philadelphia","PA","19107",39.9471663,-75.1573928,3.5,77,1,"Sushi Bars, Chinese, Soup, Seafood, Restaurants"
"Oishii Poké","938 Arch St","Philadelphia","PA","19107",39.9532717,-75.1562016,4,228,1,"Restaurants, Mexican, Food, Hawaiian, Poke, Japanese"
"Bob's Diner","6053 Ridge Ave","Philadelphia","PA","19128",40.032919,-75.21426,3.5,157,1,"Breakfast & Brunch, Diners, Restaurants"
"Cucina Maria","768 S 8th St","Philadelphia","PA","19147",39.9397045222,-75.1562596858,4.5,8,1,"Restaurants, Italian, Seafood"
"Casa México","1134 S 9th St","Philadelphia","PA","19147",39.9354931854,-75.158744,4,27,1,"Restaurants, Mexican"
"Pizzata Pizzeria","240 S 22nd St","Philadelphia","PA","19103",39.9493452,-75.1778786,4.5,60,1,"Pizza, Restaurants"
"IndeBlue Modern Indian Food & Spirits","205 South 13th St","Philadelphia","PA","19107",39.9485078263,-75.1619688173,4.5,1097,1,"Cocktail Bars, Food Delivery Services, Nightlife, Breakfast & Brunch, Food, Bars, Event Planning & Services, Caterers, Restaurants, Indian"
"Sky Cafe","1122-38 Washington Ave, Ste B","Philadelphia","PA","19147",39.9365822,-75.1626553,4.5,224,1,"Noodles, Restaurants, Indonesian"
"Parc","227 S 18th St","Philadelphia","PA","19103",39.9491724,-75.1707273,4,2761,1,"Restaurants, French, Wine Bars, Nightlife, American (New), Bars, Cafes, Breakfast & Brunch"
"Cardenas Oil & Vinegar Taproom","942 S 9th St","Philadelphia","PA","19147",39.93797,-75.158131,4.5,51,1,"Grocery, Food, Specialty Food, Olive Oil"
"Reen's Delicatessen","12319 Academy Rd","Philadelphia","PA","19154",40.096308,-74.975791,4,54,1,"Restaurants, Delis"
"Reale's Restaurant & Bar","7233 Frankford Ave","Philadelphia","PA","19135",40.0361944,-75.0412414,3.5,61,1,"Sports Bars, American (Traditional), Nightlife, Restaurants, Seafood, Bars"
"Bistrot La Minette","623 S 6th St","Philadelphia","PA","19147",39.9414622968,-75.1523852348,4.5,619,1,"Restaurants, French, Breakfast & Brunch"
"Teresa's Mesa","727 S 2nd St","Philadelphia","PA","19147",39.9394833,-75.145839,4,69,1,"Restaurants, Mexican"
"Sabrina's Café","1804 Callowhill St","Philadelphia","PA","19130",39.9604147854,-75.1686044902,4,1721,1,"Breakfast & Brunch, Restaurants, Vegetarian, Cafes, American (New), Food, Diners, American (Traditional)"
"Flying Fish Seafood","2652 S 9th St","Philadelphia","PA","19148",39.9159511,-75.1630839,3.5,13,1,"Food, Specialty Food, Seafood Markets"
"The Trestle Inn","339 N 11th St","Philadelphia","PA","19107",39.9588257,-75.1566756,4,203,1,"Lounges, Bars, Restaurants, Cocktail Bars, Whiskey Bars, Nightlife, Dance Clubs, American (Traditional)"
"M & M Restaurant","2736 E Allegheny Ave","Philadelphia","PA","19134",39.9831358,-75.1018987,4.5,27,1,"Restaurants, Polish"
"Eddie's Pizza","1200 W Berks St","Philadelphia","PA","19122",39.9807838,-75.1533257,4.5,6,1,"Pizza, Restaurants"
"Alyan's Restaurant","603 S 4th St","Philadelphia","PA","19147",39.9414081509,-75.1490631994,4,289,1,"Middle Eastern, Restaurants"
"Charlie Was a Sinner","131 S 13th St","Philadelphia","PA","19107",39.9495123,-75.1617661,4,1039,1,"Bars, Nightlife, Kosher, Burgers, Tapas/Small Plates, American (Traditional), Vegan, Seafood, Cocktail Bars, Restaurants, Vegetarian"
"Terakawa Ramen","204 N 9th St","Philadelphia","PA","19107",39.955402,-75.154484,4.5,1693,1,"Japanese, Ramen, Ethnic Food, Restaurants, Local Flavor, Food, Specialty Food"
"Cosmic Café and Ciderhouse","1 Boathouse Row","Philadelphia","PA","19130",39.9695828,-75.1876317,4,52,1,"Bars, Nightlife, Cafes, Restaurants, Breakfast & Brunch, Beer Bar"
"Gracie Academy Philadelphia","1231 Bainbridge St","Philadelphia","PA","19147",39.942684,-75.1629995,5,9,1,"Fitness & Instruction, Martial Arts, Brazilian Jiu-jitsu, Sports Clubs, Active Life"
"Johnny Brenda's","1201 Frankford Ave","Philadelphia","PA","19125",39.9690922,-75.134266,4,556,1,"Seafood, Greek, Food, Music Venues, American (New), Sandwiches, Breakfast & Brunch, Beer, Wine & Spirits, Restaurants, Bars, Arts & Entertainment, Nightlife, Burgers, Gastropubs"
"Ashton Cigar Bar","1522 Walnut St, Fl 2","Philadelphia","PA","19102",39.949424,-75.167122,3.5,215,1,"Whiskey Bars, Cocktail Bars, Shopping, Nightlife, Vape Shops, Bars, Tobacco Shops"
"Pita Chip","1600 N Broad St, Unit 7","Philadelphia","PA","19121",39.9779222117,-75.1582708789,4.5,151,1,"Mediterranean, Vegetarian, Sandwiches, Wraps, Halal, Restaurants"
"La Colombe Coffee","1335 Frankford Ave","Philadelphia","PA","19125",39.9712343,-75.1342432,4.5,509,1,"Food, Cafes, Restaurants, Coffee & Tea, Breakfast & Brunch"
"Human Robot","1710 N 5th St","Philadelphia","PA","19122",39.9772706548,-75.1435684785,4.5,40,1,"Breweries, Food, Brewpubs"
"Mighty Melt","111 S Independence Mall E","Philadelphia","PA","19106",39.949773,-75.148073,4,38,1,"Sandwiches, Restaurants, Breakfast & Brunch, Wine Bars, Nightlife, American (New), Bars, American (Traditional)"
"Winnie's Manayunk","4266 Main St","Philadelphia","PA","19127",40.024735,-75.2222673,3.5,599,1,"Bakeries, Bars, Beer Bar, American (Traditional), Event Planning & Services, Food, American (New), Cocktail Bars, Nightlife, Caterers, Restaurants, Tapas/Small Plates, Breakfast & Brunch"
"Soy Cafe","630 N 2nd St","Philadelphia","PA","19123",39.9616969288,-75.1412892166,4.5,299,1,"Restaurants, Vegetarian, Vegan, Coffee & Tea, Food"
"P. J. Clarke's","601 Walnut St","Philadelphia","PA","19106",39.948294,-75.1519511,4,130,1,"Bars, American (Traditional), Restaurants, Cocktail Bars, Nightlife"
"Darigo's Fish Market","1015 S 9th St","Philadelphia","PA","19147",39.9369107037,-75.1582012698,4.5,19,1,"Specialty Food, Seafood Markets, Food"
"Philly Foodworks","2901 W Hunting Park Ave","Philadelphia","PA","19129",40.0061301,-75.1777029,5,115,1,"Fruits & Veggies, CSA, Food, Food Delivery Services, Specialty Food, Farmers Market"
"Emperor's Garden Chinese Restaurant","9910 Frankford Ave","Philadelphia","PA","19114",40.0649629383,-74.9836531509,3.5,17,1,"Chinese, Restaurants"
"Donna's Bar","2732 E Allegheny Ave","Philadelphia","PA","19134",39.9832514,-75.1020512,4.5,14,1,"Pubs, Karaoke, Dive Bars, Bars, Nightlife"
"Han Dynasty","4356 Main St","Philadelphia","PA","19127",40.0253737,-75.2238628,3.5,417,1,"Chinese, Restaurants"
"Penrose Diner","2016 Penrose Ave","Philadelphia","PA","19145",39.9122173,-75.1827641,4,386,1,"Comfort Food, Diners, Breakfast & Brunch, Restaurants"
"Ecowas African Restaurant","6421 Woodland Ave","Philadelphia","PA","19142",39.9261517,-75.233992,4,8,1,"Restaurants, Indian, African, Ethiopian"
"Yeeroh","1412 South St","Philadelphia","PA","19146",39.9435223516,-75.1661360954,4,159,1,"Greek, Restaurants, Salad, Sandwiches, Mediterranean"
"Yards Brewing Company","500 Spring Garden St","Philadelphia","PA","19123",39.9609706195,-75.146908,4,755,1,"American (Traditional), Nightlife, Food, Bars, Restaurants, Beer, Wine & Spirits, American (New), Pubs, Local Flavor, Breweries, Event Planning & Services, Venues & Event Spaces"
"Jeong’s Noodle","6201 N Front St, Ste 124-B","Philadelphia","PA","19120",40.0449474749,-75.11773865,4,8,1,"Noodles, Seafood, Korean, Chinese, Asian Fusion, Restaurants"
"Fredy & Tony's Restaurant","3001 N Front St","Philadelphia","PA","19133",39.995528,-75.1297621,4,29,1,"Restaurants, Spanish"
"Pizzeria Pesto","1925 S Broad St","Philadelphia","PA","19148",39.9261118,-75.1689709,4,120,1,"Restaurants, Italian, Pizza"
"Dr  Wutzit's Wonder Balls","","Philadelphia","PA","19102",39.9556241,-75.1647529,3.5,7,1,"Food, Street Vendors, Food Trucks"
"Top's","259 S 15th St","Philadelphia","PA","19102",39.947731,-75.1661509,3.5,12,1,"Dive Bars, Nightlife, Bars, Pubs"
"Grace Tavern","2229 Gray's Ferry Ave","Philadelphia","PA","19146",39.9451007,-75.1795838,3.5,330,1,"Nightlife, Pubs, Bars"
"Jordan Johnson's Gourmet Seafood","7199 Buselton Ave","Philadelphia","PA","19149",40.0450716,-75.0606831,3.5,128,1,"Restaurants, Seafood"
"Nifty Fifty's","2700 S 10th St","Philadelphia","PA","19148",39.9157811,-75.1647757,3.5,27,1,"Fast Food, Breakfast & Brunch, Juice Bars & Smoothies, Desserts, Burgers, Restaurants, Food"
"Cantina Dos Segundos","931 N 2nd St","Philadelphia","PA","19123",39.9648195,-75.1402322,4,904,1,"Nightlife, Restaurants, Breakfast & Brunch, Bars, Mexican"
"Dunkin'","917 W Girard Ave","Philadelphia","PA","19123",39.9709467,-75.1521439,3.5,17,1,"Coffee & Tea, Food, Donuts"
"Old Nelson Food Company","701 Chestnut St","Philadelphia","PA","19176",39.9495146,-75.152427,4,79,1,"Grocery, Food, Delis, Sandwiches, Restaurants"
"The Monkey Club","2101 E York St","Philadelphia","PA","19125",39.9824853,-75.1283337,4.5,19,1,"Bars, Pubs, Dive Bars, Nightlife"
"Milo - The Meeting House","7165 Germantown Ave","Philadelphia","PA","19119",40.0601522,-75.1907202,3.5,23,1,"Noodles, Venues & Event Spaces, Gastropubs, Tacos, Vegetarian, Beer Gardens, American (Traditional), Mexican, Event Planning & Services, Nightlife, Arts & Entertainment, Music Venues, Vegan, Restaurants, Seafood"
"The Spot Food Truck","","Philadelphia","PA","19104",39.9513599092,-75.1846967504,4.5,50,1,"Food Stands, Street Vendors, Burgers, Restaurants, Food Trucks, Food"
"More Sugar","125 N 11th St","Philadelphia","PA","19107",39.9547447,-75.1575180679,4.5,63,1,"Desserts, Restaurants, Food, Breakfast & Brunch"
"Daiva's Grille","6750 Ridge Ave","Philadelphia","PA","19128",40.0413479,-75.2255195,3.5,92,1,"Restaurants, Diners, American (Traditional), Italian"
"Peking Garden","2205 N Broad St","Philadelphia","PA","19132",39.986448,-75.155695,5,9,1,"American (Traditional), Chinese, Restaurants"
"The Spice Rack","8428 Germantown Ave","Philadelphia","PA","19118",40.0754749,-75.2058449,4.5,10,1,"Specialty Food, Grocery, Food, Herbs & Spices"
"Shee Yuan Chinese","2125 N 63rd St","Philadelphia","PA","19151",39.9889319,-75.2498183,3.5,21,1,"Chinese, Restaurants"
"Domenic's Pizzeria","14258 Bustleton Ave","Philadelphia","PA","19116",40.1327369,-75.0119362,3.5,23,1,"Restaurants, Pizza"
"Rybrew","2816 W Girard Ave","Philadelphia","PA","19130",39.974214,-75.182504,4.5,210,1,"Restaurants, Beer, Wine & Spirits, Salad, Sandwiches, Food, American (New)"
"Cafe Cuong","811 S 8th St","Philadelphia","PA","19147",39.9388055,-75.1560658,4.5,88,1,"Restaurants, Vietnamese"
"Royal's Restaurants","7802 Limekiln Pike","Philadelphia","PA","19150",40.0719286,-75.1614096,4,95,1,"Cajun/Creole, Restaurants, Caribbean"
"Great Wall Chinese Restaurant","1441 S 7th St","Philadelphia","PA","19147",39.9304241,-75.1563112,4,13,1,"Restaurants, Chinese"
"Pizzeria Vetri","1615 Chancellor St","Philadelphia","PA","19103",39.94941083,-75.1686977423,4,313,1,"Salad, Italian, Pizza, Restaurants, Cafes"
"J&J Super Market","1839 S 7th St","Philadelphia","PA","19148",39.9253799,-75.1574454,4,8,1,"Imported Food, Grocery, Ethnic Food, Food, Butcher, Specialty Food"
"Southwark Restaurant","701 S 4th St","Philadelphia","PA","19147",39.9404771,-75.1493607,4,224,1,"Breakfast & Brunch, Nightlife, Cocktail Bars, American (New), Coffee & Tea, Bars, Food, Restaurants, Desserts"
"Khmer Grill","1016 Race St","Philadelphia","PA","19107",39.9552453374,-75.1565693933,4,72,1,"Food Stands, Barbeque, Restaurants, Chicken Wings"
"52nd Station Diner","9 S 52nd St","Philadelphia","PA","19139",39.9596810609,-75.2248420939,5,15,1,"Comfort Food, Diners, Restaurants, Breakfast & Brunch"
"Greek Lady","224 S 40th St","Philadelphia","PA","19104",39.9534811107,-75.2029253184,3.5,461,1,"Greek, Fast Food, Restaurants, Breakfast & Brunch, Mediterranean, Salad"
"El Techo","1830 Ludlow St, Fl 11","Philadelphia","PA","19103",39.952609,-75.1712569,3.5,44,1,"Restaurants, Mexican"
"The Dive Bar","947 E Passyunk Ave","Philadelphia","PA","19147",39.9368319,-75.1547066,4,126,1,"Dive Bars, Nightlife, Bars"
"Libertine Restauraunt","261 S 13th St","Philadelphia","PA","19107",39.9468905,-75.1623567,4,117,1,"Bars, Cocktail Bars, American (New), Food, Restaurants, Gelato, Nightlife"
"Hunger Burger","Reading Terminal Market","Philadelphia","PA","19107",39.9532586925,-75.1589310688,3.5,125,1,"Burgers, Food, Restaurants, Fast Food, Ice Cream & Frozen Yogurt"
"Dolce Pizza","1619 Grant Ave","Philadelphia","PA","19115",40.0872609384,-75.0399161411,3.5,39,1,"Restaurants, Italian, Pizza"
"Triple Joy","2301 N 29th St","Philadelphia","PA","19132",39.991077,-75.178587,3.5,11,1,"Restaurants, Breakfast & Brunch, Food"
"Philly Flavors","2004 Fairmount Ave","Philadelphia","PA","19130",39.9670595,-75.1705213,3.5,260,1,"Food, Ice Cream & Frozen Yogurt, Shaved Ice, Desserts"
"Fitzwater Street Philly Bagels","2001 Fitzwater St","Philadelphia","PA","19146",39.9432015,-75.1755321,3.5,167,1,"Breakfast & Brunch, Food, Restaurants, Bagels, Coffee & Tea, Sandwiches"
"Poké-Man","3737 Chestnut St","Philadelphia","PA","19104",39.9553689232,-75.198020339,3.5,135,1,"Poke, Food, Bubble Tea"
"Temple Town Pizza & Grill","2001 N Gratz St","Philadelphia","PA","19121",39.9842432,-75.1641259,3.5,6,1,"Restaurants, Pizza"
"Drinker's Tavern","124 Market St","Philadelphia","PA","19106",39.9496657,-75.143277,3.5,63,1,"Pubs, Restaurants, Tacos, Gastropubs, Mexican, Sandwiches, Dive Bars, Hot Dogs, Nightlife, Bars"
"Herbiary","51 N 12th St","Philadelphia","PA","19107",39.9531092,-75.159589,4,30,1,"Home & Garden, Shopping, Specialty Food, Beauty & Spas, Food, Coffee & Tea, Herbs & Spices, Cosmetics & Beauty Supply"
"O'Mares Irish Pub","10253 Bustleton Ave","Philadelphia","PA","19116",40.1090254,-75.0254734,3.5,38,1,"Restaurants, Nightlife, Bars, Pubs, Beer, Wine & Spirits, Food"
"Anna Restaurant","304 S 52nd St","Philadelphia","PA","19143",39.9543799638,-75.2263397723,4.5,14,1,"Restaurants, African, American (Traditional)"
"Independence Prime","Philadelphia International Airport - 8000 Essington Ave, Terminal B","Philadelphia","PA","19155",39.8745568189,-75.2437496274,3.5,108,1,"American (New), Restaurants"
"The Chinese Noodle Factory","133 N 11th St","Philadelphia","PA","19107",39.9549604,-75.1573313,4.5,12,1,"Restaurants, Chinese, Noodles, Food"
"Il Ghiottone","2723 E Cumberland St","Philadelphia","PA","19125",39.9750224,-75.1183932,4.5,8,1,"Restaurants, Food, Italian, Food Delivery Services"
"Stella's Pizza","3209 Willits Rd","Philadelphia","PA","19114",40.0572928,-75.0138114,3.5,52,1,"Restaurants, Wraps, Food, Pizza, Salad"
"Empirical Point Acupuncture","40 W Evergreen Ave, Ste 112","Philadelphia","PA","19118",40.0754252,-75.2082497,5,20,1,"Acupuncture, Traditional Chinese Medicine, Health & Medical"
"Just Salad","1729 Chestnut St","Philadelphia","PA","19103",39.9517524,-75.1698373,3.5,133,1,"Food, Vegetarian, Juice Bars & Smoothies, Wraps, Restaurants, Salad"
"Jim's Steaks South Street Steaks and Hoagies","8500 Essington Ave","Philadelphia","PA","19153",39.87602,-75.242971,3.5,37,1,"Steakhouses, Restaurants, Sandwiches"
"Currito","8500 Essington Ave, Philadelphia International Airport, Terminal A","Philadelphia","PA","19153",39.874423,-75.247136,3.5,125,1,"Mexican, Food Trucks, American (New), Salad, Juice Bars & Smoothies, Food, Restaurants"
"Pennsylvania General Store","51 N 12th St","Philadelphia","PA","19107",39.9531593,-75.1590984,4,64,1,"Arts & Crafts, Candy Stores, Food, Specialty Food, Chocolatiers & Shops, Shopping, Convenience Stores"
"Paletas Y Helados Bambino","1142 S 9th St","Philadelphia","PA","19147",39.9352044852,-75.1587517932,4.5,11,1,"Ice Cream & Frozen Yogurt, Food, Coffee & Tea, Juice Bars & Smoothies"
"Seulanga","1838 S 18th St","Philadelphia","PA","19145",39.9277585,-75.1757526,4,25,1,"Indonesian, Restaurants"
"13th Street Cocktails","","Philadelphia","PA","19107",39.9559288,-75.1574567,5,12,1,"Caterers, Nightlife, Bars, Cocktail Bars, Bartenders, Event Planning & Services"
"Linda's Vegetarian Village Restaurant","6381 Germantown Ave","Philadelphia","PA","19144",40.0458535,-75.1820573,4.5,45,1,"Vegetarian, Live/Raw Food, Vegan, Restaurants"
"Luk Fu","900 Packer Ave","Philadelphia","PA","19148",39.9091912,-75.1646617,4,27,1,"Chinese, Asian Fusion, Vietnamese, Pan Asian, Dim Sum, Restaurants"
"The Angelo Pizza","229 Market St","Philadelphia","PA","19106",39.9502888,-75.1446988,4.5,66,1,"Restaurants, Italian, Pizza"
"Suzani Palace","842 Red Lion Rd, Ste 3","Philadelphia","PA","19115",40.103072,-75.030573,3.5,10,1,"Modern European, Russian, Seafood, Armenian, Salad, Restaurants, Uzbek"
"Local 44","4333 Spruce St","Philadelphia","PA","19104",39.952821,-75.210442,3.5,494,1,"Breakfast & Brunch, Bars, American (New), Nightlife, Restaurants"
"Con Murphy's","1700 Benjamin Franklin Pkwy","Philadelphia","PA","19103",39.95602,-75.167795,3.5,301,1,"Restaurants, Sports Bars, Nightlife, Bars, Pubs, Irish"
"Zaffron","1625 Chestnut St","Philadelphia","PA","19103",39.9522584164,-75.1681316337,3.5,56,1,"Restaurants, Mediterranean, Fast Food"
"Brauhaus Schmitz","718 South St","Philadelphia","PA","19147",39.9423058586,-75.1546984195,4,764,1,"Nightlife, Bars, Restaurants, German"
"Aqimero","10 Avenue Of The Arts","Philadelphia","PA","19102",39.9512876403,-75.1641220332,3.5,143,1,"Latin American, Restaurants"
"Magic Noodles","2833 Cottman Ave","Philadelphia","PA","19149",40.04357983,-75.05235617,3.5,47,1,"Restaurants, Noodles, Chinese, Chicken Shop"
"The Bellevue Hotel","200 S Broad St","Philadelphia","PA","19102",39.9491188,-75.1648441,3.5,168,1,"Hotels & Travel, Event Planning & Services, Restaurants, Hotels"
"Fruit Salad Cart","20 S 17th St","Philadelphia","PA","19103",39.9530334473,-75.1669692993,4,5,1,"Restaurants, Juice Bars & Smoothies, Food, Food Stands"
"P. & F. Giordano, LLC","1043 S 9th St","Philadelphia","PA","19147",39.9364798,-75.1583039,5,10,1,"Specialty Food, Food, Fruits & Veggies"
"Circles + Squares","2513 Tulip St","Philadelphia","PA","19125",39.9811626537,-75.1232624799,5,103,1,"Restaurants, Pizza"
"Sabrina's Café","227 N 34th St","Philadelphia","PA","19104",39.9598792,-75.1906815,4,833,1,"Breakfast & Brunch, Restaurants, Vegetarian, American (New), American (Traditional), Comfort Food, Cafes"
"New Leaf 2 Chinese & Japanese Cuisine","4260 Main St","Philadelphia","PA","19127",40.0247036,-75.2219543,4.5,137,1,"Nightlife, Bars, Restaurants, Japanese, Chinese"
"Ray's Café & Teahouse","141 N 9th St","Philadelphia","PA","19107",39.9546207,-75.1542759,4.5,181,1,"Coffee & Tea, Chinese, Restaurants, Food"
"Cafe Nhan","1606 W Passyunk Ave","Philadelphia","PA","19145",39.924667,-75.173231,4.5,166,1,"Restaurants, Vietnamese"
"By George! Pizza Pasta & Cheesesteaks","51 N 12th St","Philadelphia","PA","19107",39.9532222415,-75.1594696319,4,284,1,"Restaurants, Italian, Pizza, Cheesesteaks"
"John & Kira's","163 W Wyoming Ave","Philadelphia","PA","19140",40.0221379,-75.1268331,4.5,47,1,"Specialty Food, Food, Chocolatiers & Shops"
"Top Shelf Lounge","5564 Market St","Philadelphia","PA","19139",39.9606936,-75.2326259,4,9,1,"Nightlife, Bars, Lounges"
"Oscar's Tavern","1524 Sansom St","Philadelphia","PA","19102",39.9502531,-75.1668064,4,328,1,"Nightlife, Restaurants, Bars, Dive Bars"
"El Principe Restaurant","115 W Lehigh Ave","Philadelphia","PA","19133",39.9910614002,-75.1315125497,3.5,25,1,"Restaurants, Latin American"
"Beijing","909 E Cayuga St","Philadelphia","PA","19124",40.0150353,-75.108814,4,8,1,"Restaurants, Chinese"
"Shang Hai 1","123 N 10th St","Philadelphia","PA","19107",39.9541205693,-75.1560343422,4,332,1,"Taiwanese, Chinese, Shanghainese, Restaurants"
"Freddy & Tony's Restaurant","201 W Allegheny Ave","Philadelphia","PA","19133",39.9992623,-75.133377,3.5,117,1,"Restaurants, Spanish, Caribbean, Puerto Rican"
"Antonio's Deli","1014 Federal St","Philadelphia","PA","19147",39.9345137,-75.1610451,5,58,1,"Delis, Restaurants, Event Planning & Services, Sandwiches, Caterers"
"New London Pizza","500 E Wyoming Ave","Philadelphia","PA","19120",40.0203154,-75.1161239,3.5,22,1,"Restaurants, Pizza"
"Condiment","51 N 12th St","Philadelphia","PA","19107",39.953423,-75.159096,5,18,1,"Specialty Food, Food"
"Anthony's Italian Coffee House and Chocolate House","903 S 9th St","Philadelphia","PA","19147",39.9386913,-75.1577712,4,191,1,"Italian, Ice Cream & Frozen Yogurt, Specialty Food, Restaurants, Food, Coffee & Tea, Tea Rooms, Chocolatiers & Shops"
"Bistro Romano","120 Lombard St","Philadelphia","PA","19147",39.9419372505,-75.1446834884,4,546,1,"Restaurants, Bars, Wine Bars, Mediterranean, Italian, Nightlife"
"Small Oven Pastry Shop","2204 Washington Ave","Philadelphia","PA","19146",39.939368,-75.180138,4.5,29,1,"Restaurants, Food, Bakeries, Cafes, Desserts"
"Emmy Squared - Queen Village","632 S 5th St","Philadelphia","PA","19147",39.941042,-75.151123,4,177,1,"Pizza, Sandwiches, Burgers, Restaurants"
"Food For Your Soul","2039 S 5th St","Philadelphia","PA","19148",39.9225986,-75.1548452,4,14,1,"Soul Food, Seafood, Restaurants, Burgers"
"Chi Mc King","1022 N Marshall St","Philadelphia","PA","19123",39.9701645,-75.1475834,4,22,1,"Restaurants, Chicken Shop, Korean"
"U-Town","110 S 40th St","Philadelphia","PA","19104",39.954974092,-75.2025566533,3.5,127,1,"Japanese, Restaurants, Asian Fusion, Korean"
"Moriarty's Restaurant and Irish Pub","1116 Walnut St","Philadelphia","PA","19107",39.9485658,-75.1598508,3.5,629,1,"Bars, Burgers, Chicken Wings, Restaurants, Pubs, Nightlife, American (Traditional), Irish"
"Butcher and Singer","1500 Walnut St","Philadelphia","PA","19102",39.9493338,-75.1661758,4.5,1290,1,"Restaurants, Steakhouses, American (Traditional)"
"Spice Garden","9813 Bustleton Ave","Philadelphia","PA","19115",40.090013,-75.0327871,4,20,1,"Restaurants, Food, Seafood, Desserts, Indian"
"New China","2354 S 7th St","Philadelphia","PA","19148",39.9192864,-75.1591554,3.5,9,1,"Chinese, Restaurants"
"Rosewood Bar","1417 W Shunk St","Philadelphia","PA","19145",39.9184022,-75.1718094,3.5,7,1,"Nightlife, Bars"
"Cilantro New Mediterranean Cuisine","613 S 4th St","Philadelphia","PA","19147",39.9411149,-75.1490884,4.5,85,1,"Mediterranean, Restaurants"
"Craft Manayunk","4141 Main St","Philadelphia","PA","19127",40.0230319381,-75.2190360036,3.5,97,1,"Nightlife, Bars, Pubs, Food, Beer, Wine & Spirits, American (Traditional), Restaurants"
"Soul of Africa Restaurant","6422 Rising Sun Ave","Philadelphia","PA","19111",40.0501905879,-75.0950990763,3.5,23,1,"African, Restaurants"
"Willkay's Ice Cream","2501 Island Ave","Philadelphia","PA","19153",39.9127954,-75.2430018,4,6,1,"Ice Cream & Frozen Yogurt, Food"
"Pho Don","3528 Germantown Ave","Philadelphia","PA","19140",40.00673,-75.15034,4.5,43,1,"Vietnamese, Restaurants"
"Castellino's","1255 E Palmer St","Philadelphia","PA","19125",39.9723373258,-75.129040464,5,72,1,"Restaurants, Food, Sardinian, Italian, Delis, Pasta Shops, Specialty Food, International Grocery"
"Queen & Rook Game Cafe","607 S 2nd St","Philadelphia","PA","19147",39.9408669,-75.1455409,4.5,66,1,"Restaurants, Bars, Breakfast & Brunch, Eatertainment, Vegetarian, Arts & Entertainment, Cafes, Nightlife, Tabletop Games, Vegan, Themed Cafes, Shopping"
"Irwin's","800 Mifflin St","Philadelphia","PA","19148",39.925195,-75.1600137,4,111,1,"Tapas/Small Plates, Cocktail Bars, Nightlife, Restaurants, Mediterranean, Bars"
"Bluestone Lane - Philadelphia","1 S Penn Sq","Philadelphia","PA","19107",39.9513885876,-75.1631133975,4,88,1,"Coffee & Tea, Breakfast & Brunch, Restaurants, Gluten-Free, Cafes, Food"
"Young American Cider","6350 Germantown Ave","Philadelphia","PA","19144",40.0446083,-75.1818294,5,12,1,"Breweries, Food, Beverage Store"
"United Buffet","4640 Roosevelt Blvd","Philadelphia","PA","19124",40.0296853917,-75.1005433334,3.5,64,1,"Restaurants, Chinese, Buffets, Seafood, Japanese"
"Sweet Box Cupcakes","339 S 13th St","Philadelphia","PA","19107",39.9455654,-75.1627808,4.5,268,1,"Food Trucks, Food Delivery Services, Street Vendors, Desserts, Food Stands, Restaurants, Food, Cupcakes, Bakeries"
"Five Points Cocktail Lounge","4091 Ford Rd","Philadelphia","PA","19131",40.0009615085,-75.2146748648,4.5,10,1,"Nightlife, Bars"
"Alimentari","1730 Chestnut St","Philadelphia","PA","19103",39.9513109633,-75.1700653508,4.5,29,1,"Beer Bar, Bars, Nightlife, Italian, Restaurants, Wine Bars"
"Brotherly Grub","7135 Germantown Ave","Philadelphia","PA","19119",40.0594149,-75.1901908,4,22,1,"Food Trucks, Food, Cafes, Street Vendors, Restaurants, Themed Cafes, Sandwiches"
"Taffets Bakery & Store","1024 S 9th St","Philadelphia","PA","19147",39.9369392,-75.1584414,4.5,69,1,"Restaurants, Gluten-Free, Bakeries, Food"
"Jean's Pizzeria & Grill","3252 Ryan Ave","Philadelphia","PA","19136",40.0404044,-75.0437057,3.5,28,1,"Restaurants, Pizza"
"Fu-Wah Mini Market","810 S 47th St","Philadelphia","PA","19143",39.9482921,-75.2170137,4.5,247,1,"Grocery, Food, Convenience Stores, Restaurants, Sandwiches"
"Harp & Crown","1525 Sansom St","Philadelphia","PA","19102",39.9504170438,-75.1664282754,4,912,1,"Active Life, Nightlife, Bars, American (Traditional), Bowling, Restaurants, American (New), Gastropubs"
"Seorabol Center City","1326 Spruce St","Philadelphia","PA","19107",39.9466893,-75.1639777,4,219,1,"Korean, Restaurants, Soup, Asian Fusion, Barbeque, Sushi Bars, Nightlife, Cocktail Bars, Bars"
"Koreana","37 S 19th St","Philadelphia","PA","19103",39.9523399,-75.1715586,3.5,93,1,"Asian Fusion, Restaurants, Korean"
"Aramingo's Best Pizza","2885 Aramingo Ave","Philadelphia","PA","19134",39.9846346,-75.1133642,4,38,1,"Restaurants, Pizza, Cheesesteaks, Italian, Sandwiches, Fast Food"
"George's Food truck","3700 Sansom St","Philadelphia","PA","19104",39.9541529,-75.1966082,4.5,12,1,"Food Trucks, Food, Restaurants, Food Stands"
"Laurel","1617 E Passyunk Ave","Philadelphia","PA","19148",39.9294148,-75.1637155,4.5,326,1,"French, American (New), Restaurants"
"Fiume","229 S 45th St, Fl 2","Philadelphia","PA","19104",39.9541657,-75.2116004,4.5,160,1,"Nightlife, Music Venues, Beer Bar, Dive Bars, Bars, Whiskey Bars, Arts & Entertainment, Cocktail Bars"
"Oxtail International Cuisine and Juice Bar","1441 Synder Ave","Philadelphia","PA","19145",39.9247438,-75.171114,4,8,1,"Caribbean, Restaurants"
"Libertee Grounds","1600 W Girard Ave","Philadelphia","PA","19130",39.9715336655,-75.1632025838,4.5,48,1,"Sandwiches, Bars, Mini Golf, Pan Asian, Active Life, Salad, Nightlife, Beer Bar, Golf, Restaurants"
"Las Bugambilias","15 S 3rd St","Philadelphia","PA","19106",39.9499940204,-75.1454153298,4,381,1,"Restaurants, Mexican"
"JR's saloon","2663 E Norris St","Philadelphia","PA","19125",39.9742038,-75.1226352,3.5,12,1,"Bars, Dive Bars, Pubs, Nightlife"
"Picanha Brazilian Steakhouse","1111 Locust St","Philadelphia","PA","19107",39.9477453,-75.159542,4,87,1,"Restaurants, Steakhouses, Brazilian, Buffets"
"Sto's Bar & Restaurant","236 Market St","Philadelphia","PA","19106",39.9500081317,-75.1446980851,3.5,119,1,"Arts & Entertainment, Bars, Eatertainment, Restaurants, American (New), Nightlife"
"Renzi's Pizzeria","2728 Orthodox St","Philadelphia","PA","19137",39.99804,-75.0744267,3.5,39,1,"Pizza, Sandwiches, Restaurants, Italian"
"Sushi Garden & Kitchen","425 S Broad St","Philadelphia","PA","19147",39.9447414,-75.1649239,4.5,28,1,"Restaurants, Sushi Bars, Japanese, Thai, Chinese"
"Fogo de Chao","1337 Chestnut St","Philadelphia","PA","19107",39.9509166,-75.1629711,4,1426,1,"Seafood, Steakhouses, Brazilian, Restaurants"
"allongée","232 Market St, Fl 2","Philadelphia","PA","19106",39.949716,-75.145242,4,23,1,"Food, Barre Classes, Coffee & Tea, Fitness & Instruction, Gyms, Active Life, Sports Clubs, Juice Bars & Smoothies, Yoga, Pilates, Cardio Classes"
"Premium Steap","211 North 13th St, Ste 304","Philadelphia","PA","19107",39.9565128,-75.1602477,4.5,9,1,"Coffee & Tea, Food"
"ALDI","2603 S Front St","Philadelphia","PA","19148",39.9149609141,-75.1485875878,4,38,1,"Grocery, Organic Stores, Beer, Wine & Spirits, Food, Meat Shops, Specialty Food, Fruits & Veggies, Shopping, Discount Store"
"Ramona Susan's Bake Shop","1424 South St","Philadelphia","PA","19146",39.9436038,-75.1664629,5,6,1,"Custom Cakes, Bakeries, Cupcakes, Food"
"Kensington Quarters","1310 Frankford Ave","Philadelphia","PA","19125",39.9705028,-75.1346993,4,318,1,"Event Planning & Services, Butcher, American (Traditional), American (New), Cooking Classes, Venues & Event Spaces, Arts & Crafts, Shopping, Restaurants, Food"
"Chicken Heaven","N 13th St & W Montgomery Ave","Philadelphia","PA","19122",39.979948,-75.155373,4,9,1,"Food Trucks, Food"
"The Fin Surf & Turf by CDJ","1000 Frankford Ave, Ste 1","Philadelphia","PA","19125",39.9649452,-75.1346806,4,7,1,"Seafood, Restaurants"
"Koch's Deli","4309 Locust St","Philadelphia","PA","19104",39.953956271,-75.2097241761,4,260,1,"Convenience Stores, Salad, Food, Delis, Caterers, Event Planning & Services, Kosher, Sandwiches, Restaurants"
"Undrgrnd Donuts","","Philadelphia","PA","19104",39.9583587,-75.1953934,4,39,1,"Food Stands, Donuts, Restaurants, Food"
"Stripp'd Cold Pressed Juice","263 N 3rd St","Philadelphia","PA","19106",39.9557445089,-75.1441897751,4,82,1,"Juice Bars & Smoothies, Food"
"Vanilya","1611 E Passyunk Ave","Philadelphia","PA","19148",39.9295452,-75.1635787,4.5,90,1,"Bakeries, Shopping, Food"
"Golden Gates","11058 Rennard St","Philadelphia","PA","19116",40.1219421,-75.0343338,3.5,18,1,"Nightlife, Russian, American (New), Dance Clubs, Restaurants"
"Keller Market","7964 Verree Rd","Philadelphia","PA","19111",40.0721248,-75.0767287,4.5,22,1,"Grocery, Restaurants, Food, Sandwiches"
"Tiffin","710 W Girard Ave","Philadelphia","PA","19123",39.9701111,-75.1486779,3.5,304,1,"Pakistani, Indian, Restaurants, Food, Food Delivery Services, Vegetarian"
"Tommy's Place","5511 N 5th St","Philadelphia","PA","19120",40.0352118,-75.1304918,3.5,10,1,"Restaurants, Fast Food, Breakfast & Brunch"
